sequence,rx_end_us,delta_us,fault_code,nmea_type,checksum_valid,truncated,nmea
193,316057506,0,0,GGA,1,0,"$GNGGA,111437.000,3629.0024,N,13634.4379,E,1,17,1.85,46.7,M,34.9,M,,*40"
195,316058982,0,0,GLL,1,0,"$GNGLL,3629.0024,N,13634.4379,E,111437.000,A,A*44"
196,316060240,0,0,GSA,1,0,"$GNGSA,A,3,25,28,12,03,,,,,,,,,2.08,1.85,0.96,1*05"
198,316061525,0,0,GSA,1,0,"$GNGSA,A,3,72,74,73,65,,,,,,,,,2.08,1.85,0.96,2*0A"
200,316062684,0,0,GSA,1,0,"$GNGSA,A,3,30,02,,,,,,,,,,,2.08,1.85,0.96,3*0B"
202,316063816,0,0,GSA,1,0,"$GNGSA,A,3,36,,,,,,,,,,,,2.08,1.85,0.96,4*08"
204,316065462,0,0,GSV,1,0,"$GPGSV,2,1,08,32,85,298,,25,61,046,33,28,54,312,30,29,32,128,14,1*6E"
205,316067180,0,0,GSV,1,0,"$GPGSV,2,2,08,31,29,287,22,12,24,045,27,10,22,205,16,03,06,326,23,1*6B"
230,316167473,0,0,GSV,1,0,"$GPGSV,1,1,03,25,61,046,35,28,54,312,17,03,06,326,24,8*53"
231,316169302,0,0,GSV,1,0,"$GLGSV,2,1,06,72,72,308,26,74,67,336,31,73,30,037,17,65,20,329,36,1*7D"
232,316170426,0,0,GSV,1,0,"$GLGSV,2,2,06,83,03,071,29,82,02,023,20,1*70"
233,316172030,0,0,GSV,1,0,"$GAGSV,1,1,04,30,65,059,33,27,57,205,,02,14,042,36,21,07,217,,7*7F"
234,316173118,0,0,GSV,1,0,"$GAGSV,1,1,02,30,65,059,33,02,14,042,27,1*7F"
235,316174575,0,0,GSV,1,0,"$GBGSV,1,1,04,36,73,308,26,04,42,143,,03,41,220,,16,,,25,1*4E"
236,316175353,0,0,GSV,1,0,"$GBGSV,1,1,01,36,73,308,26,4*4C"
237,316177040,0,0,RMC,1,0,"$GNRMC,111437.000,A,3629.0024,N,13634.4379,E,0.09,182.99,170726,,,A,V*0E"
239,316178134,0,0,VTG,1,0,"$GNVTG,182.99,T,,M,0.09,N,0.17,K,A*27"
241,316178890,0,0,MSG,1,0,"$PAIRMSG,90,111437.000,1*58"
242,316179618,0,0,MSG,1,0,"$PAIRMSG,91,111437.000,1,0*45"
470,317020784,0,0,GGA,1,0,"$GNGGA,111438.000,3629.0024,N,13634.4378,E,1,17,1.85,46.6,M,34.9,M,,*4F"
472,317022340,0,0,GLL,1,0,"$GNGLL,3629.0024,N,13634.4378,E,111438.000,A,A*4A"
473,317023590,0,0,GSA,1,0,"$GNGSA,A,3,25,28,12,03,,,,,,,,,2.08,1.85,0.96,1*05"
475,317024873,0,0,GSA,1,0,"$GNGSA,A,3,72,74,73,65,,,,,,,,,2.08,1.85,0.96,2*0A"
477,317026045,0,0,GSA,1,0,"$GNGSA,A,3,30,02,,,,,,,,,,,2.08,1.85,0.96,3*0B"
479,317027167,0,0,GSA,1,0,"$GNGSA,A,3,36,,,,,,,,,,,,2.08,1.85,0.96,4*08"
481,317028832,0,0,GSV,1,0,"$GPGSV,2,1,08,32,85,298,,25,61,046,33,28,54,312,30,29,32,128,14,1*6E"
482,317030491,0,0,GSV,1,0,"$GPGSV,2,2,08,31,29,287,22,12,24,045,27,10,22,205,16,03,06,326,23,1*6B"
507,317129487,0,0,GSV,1,0,"$GPGSV,1,1,03,25,61,046,35,28,54,312,18,03,06,326,24,8*5C"
508,317131270,0,0,GSV,1,0,"$GLGSV,2,1,06,72,72,308,26,74,67,336,31,73,30,037,17,65,20,329,36,1*7D"
509,317132342,0,0,GSV,1,0,"$GLGSV,2,2,06,83,03,071,28,82,02,023,20,1*71"
510,317133899,0,0,GSV,1,0,"$GAGSV,1,1,04,30,65,059,33,27,57,205,,02,14,042,36,21,07,217,,7*7F"
511,317134967,0,0,GSV,1,0,"$GAGSV,1,1,02,30,65,059,33,02,14,042,27,1*7F"
512,317136451,0,0,GSV,1,0,"$GBGSV,1,1,04,36,73,308,26,04,42,143,,03,41,220,,16,,,25,1*4E"
513,317137272,0,0,GSV,1,0,"$GBGSV,1,1,01,36,73,308,26,4*4C"
514,317139005,0,0,RMC,1,0,"$GNRMC,111438.000,A,3629.0024,N,13634.4378,E,0.17,182.99,170726,,,A,V*0F"
516,317140122,0,0,VTG,1,0,"$GNVTG,182.99,T,,M,0.17,N,0.32,K,A*2F"
518,317140887,0,0,MSG,1,0,"$PAIRMSG,90,111438.000,1*57"
519,317141613,0,0,MSG,1,0,"$PAIRMSG,91,111438.000,1,0*4A"
750,318004213,0,0,GGA,1,0,"$GNGGA,111439.000,3629.0025,N,13634.4378,E,1,17,1.85,46.6,M,34.9,M,,*4F"
752,318005717,0,0,GLL,1,0,"$GNGLL,3629.0025,N,13634.4378,E,111439.000,A,A*4A"
753,318006984,0,0,GSA,1,0,"$GNGSA,A,3,25,28,12,03,,,,,,,,,2.08,1.85,0.96,1*05"
755,318008294,0,0,GSA,1,0,"$GNGSA,A,3,72,74,73,65,,,,,,,,,2.08,1.85,0.96,2*0A"
757,318009520,0,0,GSA,1,0,"$GNGSA,A,3,30,02,,,,,,,,,,,2.08,1.85,0.96,3*0B"
759,318010646,0,0,GSA,1,0,"$GNGSA,A,3,36,,,,,,,,,,,,2.08,1.85,0.96,4*08"
785,318108971,0,0,GSV,1,0,"$GPGSV,2,1,08,32,85,298,,25,61,046,33,28,54,312,30,29,32,128,14,1*6E"
786,318110751,0,0,GSV,1,0,"$GPGSV,2,2,08,31,29,287,22,12,24,045,28,10,22,205,16,03,06,326,23,1*64"
787,318112112,0,0,GSV,1,0,"$GPGSV,1,1,03,25,61,046,35,28,54,312,18,03,06,326,24,8*5C"
788,318113765,0,0,GSV,1,0,"$GLGSV,2,1,06,72,72,308,26,74,67,336,31,73,30,037,17,65,20,329,36,1*7D"
789,318114833,0,0,GSV,1,0,"$GLGSV,2,2,06,83,03,071,28,82,02,023,19,1*7B"
790,318116396,0,0,GSV,1,0,"$GAGSV,1,1,04,30,65,059,33,27,57,205,,02,14,042,36,21,07,217,,7*7F"
791,318117464,0,0,GSV,1,0,"$GAGSV,1,1,02,30,65,059,33,02,14,042,27,1*7F"
792,318118909,0,0,GSV,1,0,"$GBGSV,1,1,04,36,73,308,26,04,42,143,,03,41,220,,16,,,26,1*4D"
793,318119685,0,0,GSV,1,0,"$GBGSV,1,1,01,36,73,308,26,4*4C"
818,318217922,0,0,RMC,1,0,"$GNRMC,111439.000,A,3629.0025,N,13634.4378,E,0.14,182.99,170726,,,A,V*0C"
820,318219114,0,0,VTG,1,0,"$GNVTG,182.99,T,,M,0.14,N,0.27,K,A*28"
822,318219870,0,0,MSG,1,0,"$PAIRMSG,90,111439.000,1*56"
823,318220614,0,0,MSG,1,0,"$PAIRMSG,91,111439.000,1,0*4B"
1039,319021618,0,0,GGA,1,0,"$GNGGA,111440.000,3629.0025,N,13634.4378,E,1,17,1.85,46.6,M,34.9,M,,*41"
1041,319023077,0,0,GLL,1,0,"$GNGLL,3629.0025,N,13634.4378,E,111440.000,A,A*44"
1042,319024314,0,0,GSA,1,0,"$GNGSA,A,3,25,28,12,03,,,,,,,,,2.08,1.85,0.96,1*05"
1044,319025576,0,0,GSA,1,0,"$GNGSA,A,3,72,74,73,65,,,,,,,,,2.08,1.85,0.96,2*0A"
1046,319026748,0,0,GSA,1,0,"$GNGSA,A,3,30,02,,,,,,,,,,,2.08,1.85,0.96,3*0B"
1048,319027877,0,0,GSA,1,0,"$GNGSA,A,3,36,,,,,,,,,,,,2.08,1.85,0.96,4*08"
1050,319029541,0,0,GSV,1,0,"$GPGSV,2,1,08,32,85,298,,25,61,046,33,28,54,312,30,29,32,128,14,1*6E"
1051,319031206,0,0,GSV,1,0,"$GPGSV,2,2,08,31,29,287,22,12,24,045,28,10,22,205,16,03,06,326,20,1*67"
1076,319126037,0,0,GSV,1,0,"$GPGSV,1,1,03,25,61,046,36,28,54,312,17,03,06,326,24,8*50"
1077,319127825,0,0,GSV,1,0,"$GLGSV,2,1,06,72,72,308,27,74,67,336,31,73,30,037,17,65,20,329,36,1*7C"
1078,319128894,0,0,GSV,1,0,"$GLGSV,2,2,06,83,03,071,27,82,02,023,19,1*74"
1079,319130457,0,0,GSV,1,0,"$GAGSV,1,1,04,30,65,059,32,27,57,205,,02,14,042,36,21,07,217,,7*7E"
1080,319131527,0,0,GSV,1,0,"$GAGSV,1,1,02,30,65,059,33,02,14,042,27,1*7F"
1081,319132973,0,0,GSV,1,0,"$GBGSV,1,1,04,36,73,308,26,04,42,143,,03,41,220,,16,,,26,1*4D"
1082,319133749,0,0,GSV,1,0,"$GBGSV,1,1,01,36,73,308,26,4*4C"
1083,319135491,0,0,RMC,1,0,"$GNRMC,111440.000,A,3629.0025,N,13634.4378,E,0.11,182.99,170726,,,A,V*07"
1085,319136632,0,0,VTG,1,0,"$GNVTG,182.99,T,,M,0.11,N,0.21,K,A*2B"
1087,319137412,0,0,MSG,1,0,"$PAIRMSG,90,111440.000,1*58"
1088,319138156,0,0,MSG,1,0,"$PAIRMSG,91,111440.000,1,0*45"
1328,320035653,0,0,GGA,1,0,"$GNGGA,111441.000,3629.0025,N,13634.4377,E,1,18,1.67,46.6,M,34.9,M,,*4C"
1330,320037115,0,0,GLL,1,0,"$GNGLL,3629.0025,N,13634.4377,E,111441.000,A,A*4A"
1331,320038396,0,0,GSA,1,0,"$GNGSA,A,3,32,25,28,12,03,,,,,,,,1.92,1.67,0.95,1*0B"
1333,320039661,0,0,GSA,1,0,"$GNGSA,A,3,72,74,73,65,,,,,,,,,1.92,1.67,0.95,2*05"
1335,320040882,0,0,GSA,1,0,"$GNGSA,A,3,30,02,,,,,,,,,,,1.92,1.67,0.95,3*04"
1337,320042024,0,0,GSA,1,0,"$GNGSA,A,3,36,,,,,,,,,,,,1.92,1.67,0.95,4*07"
1339,320043751,0,0,GSV,1,0,"$GPGSV,2,1,08,32,85,298,27,25,61,046,33,28,54,312,30,29,32,128,14,1*6B"
1340,320045427,0,0,GSV,1,0,"$GPGSV,2,2,08,31,29,287,22,12,24,045,28,10,22,205,16,03,06,326,20,1*67"
1365,320144863,0,0,GSV,1,0,"$GPGSV,1,1,03,25,61,046,36,28,54,312,17,03,06,326,24,8*50"
1366,320146643,0,0,GSV,1,0,"$GLGSV,2,1,06,72,72,308,26,74,67,336,31,73,30,037,17,65,20,329,36,1*7D"
1367,320147716,0,0,GSV,1,0,"$GLGSV,2,2,06,83,03,071,27,82,02,023,19,1*74"
1368,320149281,0,0,GSV,1,0,"$GAGSV,1,1,04,30,65,059,32,27,57,205,,02,14,042,36,21,07,217,,7*7E"
1369,320150351,0,0,GSV,1,0,"$GAGSV,1,1,02,30,65,059,33,02,14,042,27,1*7F"
1370,320151795,0,0,GSV,1,0,"$GBGSV,1,1,04,36,73,308,26,04,42,143,,03,41,220,,16,,,26,1*4D"
1371,320152570,0,0,GSV,1,0,"$GBGSV,1,1,01,36,73,308,26,4*4C"
1372,320154310,0,0,RMC,1,0,"$GNRMC,111441.000,A,3629.0025,N,13634.4377,E,0.19,182.99,170726,,,A,V*01"
1374,320155450,0,0,VTG,1,0,"$GNVTG,182.99,T,,M,0.19,N,0.35,K,A*26"
1376,320156229,0,0,MSG,1,0,"$PAIRMSG,90,111441.000,1*59"
1401,320254186,0,0,MSG,1,0,"$PAIRMSG,91,111441.000,1,0*44"
1620,321056378,0,0,GGA,1,0,"$GNGGA,111442.000,3629.0025,N,13634.4377,E,1,18,1.67,46.5,M,34.9,M,,*4C"
1622,321057840,0,0,GLL,1,0,"$GNGLL,3629.0025,N,13634.4377,E,111442.000,A,A*49"
1623,321059155,0,0,GSA,1,0,"$GNGSA,A,3,32,25,28,12,03,,,,,,,,1.92,1.67,0.95,1*0B"
1625,321060436,0,0,GSA,1,0,"$GNGSA,A,3,72,74,73,65,,,,,,,,,1.92,1.67,0.95,2*05"
1627,321061614,0,0,GSA,1,0,"$GNGSA,A,3,30,02,,,,,,,,,,,1.92,1.67,0.95,3*04"
1629,321062789,0,0,GSA,1,0,"$GNGSA,A,3,36,,,,,,,,,,,,1.92,1.67,0.95,4*07"
1631,321064591,0,0,GSV,1,0,"$GPGSV,2,1,08,32,85,298,27,25,61,046,33,28,54,312,30,29,32,128,14,1*6B"
1632,321066315,0,0,GSV,1,0,"$GPGSV,2,2,08,31,29,287,22,12,24,045,29,10,22,205,16,03,06,326,21,1*67"
1657,321163587,0,0,GSV,1,0,"$GPGSV,1,1,03,25,61,046,36,28,54,312,17,03,06,326,24,8*50"
1658,321165370,0,0,GSV,1,0,"$GLGSV,2,1,06,72,72,308,27,74,67,336,31,73,30,037,17,65,20,329,36,1*7C"
1659,321166442,0,0,GSV,1,0,"$GLGSV,2,2,06,83,03,071,27,82,02,023,19,1*74"
1660,321167998,0,0,GSV,1,0,"$GAGSV,1,1,04,30,65,059,32,27,57,205,,02,14,042,36,21,07,217,,7*7E"
1661,321169068,0,0,GSV,1,0,"$GAGSV,1,1,02,30,65,059,33,02,14,042,27,1*7F"
1662,321170520,0,0,GSV,1,0,"$GBGSV,1,1,04,36,73,308,26,04,42,143,,03,41,220,,16,,,26,1*4D"
1663,321171297,0,0,GSV,1,0,"$GBGSV,1,1,01,36,73,308,26,4*4C"
1664,321172985,0,0,RMC,1,0,"$GNRMC,111442.000,A,3629.0025,N,13634.4377,E,0.12,182.99,170726,,,A,V*09"
1666,321174065,0,0,VTG,1,0,"$GNVTG,182.99,T,,M,0.12,N,0.22,K,A*2B"
1668,321174818,0,0,MSG,1,0,"$PAIRMSG,90,111442.000,1*5A"
1693,321268300,0,0,MSG,1,0,"$PAIRMSG,91,111442.000,1,0*47"
1894,321999899,0,0,GGA,1,0,"$GNGGA,111443.000,3629.0025,N,13634.4378,E,1,18,1.67,46.5,M,34.9,M,,*42"
1896,322001364,0,0,GLL,1,0,"$GNGLL,3629.0025,N,13634.4378,E,111443.000,A,A*47"
1897,322002673,0,0,GSA,1,0,"$GNGSA,A,3,32,25,28,12,03,,,,,,,,1.92,1.67,0.95,1*0B"
1899,322003959,0,0,GSA,1,0,"$GNGSA,A,3,72,74,73,65,,,,,,,,,1.92,1.67,0.95,2*05"
1901,322005161,0,0,GSA,1,0,"$GNGSA,A,3,30,02,,,,,,,,,,,1.92,1.67,0.95,3*04"
1903,322006373,0,0,GSA,1,0,"$GNGSA,A,3,36,,,,,,,,,,,,1.92,1.67,0.95,4*07"
1929,322102238,0,0,GSV,1,0,"$GPGSV,2,1,08,32,85,298,27,25,61,046,33,28,54,312,30,29,32,128,14,1*6B"
1930,322104021,0,0,GSV,1,0,"$GPGSV,2,2,08,31,29,287,22,12,24,045,29,10,22,205,16,03,06,326,22,1*64"
1931,322105513,0,0,GSV,1,0,"$GPGSV,1,1,03,25,61,046,36,28,54,312,17,03,06,326,24,8*50"
1932,322107418,0,0,GSV,1,0,"$GLGSV,2,1,06,72,72,308,27,74,67,336,31,73,30,037,17,65,20,329,36,1*7C"
1933,322108494,0,0,GSV,1,0,"$GLGSV,2,2,06,83,03,071,27,82,02,023,19,1*74"
1934,322110050,0,0,GSV,1,0,"$GAGSV,1,1,04,30,65,059,32,27,57,205,,02,14,042,36,21,07,217,,7*7E"
1935,322111119,0,0,GSV,1,0,"$GAGSV,1,1,02,30,65,059,33,02,14,042,27,1*7F"
1936,322112572,0,0,GSV,1,0,"$GBGSV,1,1,04,36,73,308,26,04,42,143,,03,41,220,,16,,,26,1*4D"
1937,322113351,0,0,GSV,1,0,"$GBGSV,1,1,01,36,73,308,26,4*4C"
1962,322209223,0,0,RMC,1,0,"$GNRMC,111443.000,A,3629.0025,N,13634.4378,E,0.24,182.99,170726,,,A,V*02"
1964,322210429,0,0,VTG,1,0,"$GNVTG,182.99,T,,M,0.24,N,0.44,K,A*2E"
1966,322211188,0,0,MSG,1,0,"$PAIRMSG,90,111443.000,1*5B"
1967,322211933,0,0,MSG,1,0,"$PAIRMSG,91,111443.000,1,0*46"
2186,323017100,0,0,GGA,1,0,"$GNGGA,111444.000,3629.0025,N,13634.4378,E,1,18,1.67,46.5,M,34.9,M,,*45"
2188,323018555,0,0,GLL,1,0,"$GNGLL,3629.0025,N,13634.4378,E,111444.000,A,A*40"
2189,323019821,0,0,GSA,1,0,"$GNGSA,A,3,32,25,28,12,03,,,,,,,,1.92,1.67,0.95,1*0B"
2191,323021092,0,0,GSA,1,0,"$GNGSA,A,3,72,74,73,65,,,,,,,,,1.92,1.67,0.95,2*05"
2193,323022262,0,0,GSA,1,0,"$GNGSA,A,3,30,02,,,,,,,,,,,1.92,1.67,0.95,3*04"
2195,323023439,0,0,GSA,1,0,"$GNGSA,A,3,36,,,,,,,,,,,,1.92,1.67,0.95,4*07"
2197,323025151,0,0,GSV,1,0,"$GPGSV,2,1,08,32,85,298,27,25,61,046,33,28,54,312,30,29,32,128,13,1*6C"
2198,323026829,0,0,GSV,1,0,"$GPGSV,2,2,08,31,29,287,22,12,24,045,29,10,22,205,16,03,06,326,22,1*64"
2223,323123316,0,0,GSV,1,0,"$GPGSV,1,1,03,25,61,046,35,28,54,312,16,03,06,326,23,8*55"
2224,323125154,0,0,GSV,1,0,"$GLGSV,2,1,06,72,72,308,27,74,67,336,31,73,30,037,17,65,20,329,36,1*7C"
2225,323126316,0,0,GSV,1,0,"$GLGSV,2,2,06,83,03,071,26,82,02,023,18,1*74"
2226,323127874,0,0,GSV,1,0,"$GAGSV,1,1,04,30,65,059,32,27,57,205,,02,14,042,36,21,07,217,,7*7E"
2227,323128944,0,0,GSV,1,0,"$GAGSV,1,1,02,30,65,059,33,02,14,042,26,1*7E"
2228,323130394,0,0,GSV,1,0,"$GBGSV,1,1,04,36,73,308,26,04,42,143,,03,41,220,,16,,,26,1*4D"
2229,323131166,0,0,GSV,1,0,"$GBGSV,1,1,01,36,73,308,26,4*4C"
2230,323132861,0,0,RMC,1,0,"$GNRMC,111444.000,A,3629.0025,N,13634.4378,E,0.18,182.99,170726,,,A,V*0A"
2232,323133940,0,0,VTG,1,0,"$GNVTG,182.99,T,,M,0.18,N,0.33,K,A*21"
2234,323134694,0,0,MSG,1,0,"$PAIRMSG,90,111444.000,1*5C"
2259,323228040,0,0,MSG,1,0,"$PAIRMSG,91,111444.000,1,0*41"
2478,324024818,0,0,GGA,1,0,"$GNGGA,111445.000,3629.0026,N,13634.4378,E,1,19,1.75,46.5,M,34.9,M,,*45"
2480,324026281,0,0,GLL,1,0,"$GNGLL,3629.0026,N,13634.4378,E,111445.000,A,A*42"
2481,324027556,0,0,GSA,1,0,"$GNGSA,A,3,32,25,28,12,03,,,,,,,,1.99,1.75,0.96,1*00"
2483,324028853,0,0,GSA,1,0,"$GNGSA,A,3,72,74,73,65,,,,,,,,,1.99,1.75,0.96,2*0E"
2485,324030124,0,0,GSA,1,0,"$GNGSA,A,3,30,02,,,,,,,,,,,1.99,1.75,0.96,3*0F"
2487,324031296,0,0,GSA,1,0,"$GNGSA,A,3,36,,,,,,,,,,,,1.99,1.75,0.96,4*0C"
2489,324033006,0,0,GSV,1,0,"$GPGSV,2,1,08,32,85,298,26,25,61,046,33,28,54,312,29,29,32,128,13,1*65"
2490,324034746,0,0,GSV,1,0,"$GPGSV,2,2,08,31,29,287,21,12,24,045,28,10,22,205,16,03,06,326,21,1*65"
2515,324142204,0,0,GSV,1,0,"$GPGSV,1,1,04,32,85,298,18,25,61,046,35,28,54,312,17,03,06,326,23,8*65"
2516,324143992,0,0,GSV,1,0,"$GLGSV,2,1,06,72,72,308,27,74,67,336,31,73,30,037,17,65,20,329,36,1*7C"
2517,324145061,0,0,GSV,1,0,"$GLGSV,2,2,06,83,03,071,26,82,02,023,18,1*74"
2518,324146722,0,0,GSV,1,0,"$GAGSV,1,1,04,30,65,059,32,27,57,205,,02,14,042,36,21,07,217,,7*7E"
2519,324148095,0,0,GSV,1,0,"$GAGSV,1,1,02,30,65,059,33,02,14,042,26,1*7E"
2520,324149610,0,0,GSV,1,0,"$GBGSV,1,1,04,36,73,308,26,04,42,143,,03,41,220,,16,,,26,1*4D"
2521,324150390,0,0,GSV,1,0,"$GBGSV,1,1,01,36,73,308,26,4*4C"
2522,324152077,0,0,RMC,1,0,"$GNRMC,111445.000,A,3629.0026,N,13634.4378,E,0.34,182.99,170726,,,A,V*06"
2524,324153164,0,0,VTG,1,0,"$GNVTG,182.99,T,,M,0.34,N,0.63,K,A*2A"
2526,324153929,0,0,MSG,1,0,"$PAIRMSG,90,111445.000,1*5D"
2551,324247245,0,0,MSG,1,0,"$PAIRMSG,91,111445.000,1,0*40"
2770,325048759,0,0,GGA,1,0,"$GNGGA,111446.000,3629.0026,N,13634.4378,E,1,19,1.75,46.5,M,34.9,M,,*46"
2772,325050211,0,0,GLL,1,0,"$GNGLL,3629.0026,N,13634.4378,E,111446.000,A,A*41"
2773,325051489,0,0,GSA,1,0,"$GNGSA,A,3,32,25,28,12,03,,,,,,,,1.99,1.75,0.96,1*00"
2775,325052757,0,0,GSA,1,0,"$GNGSA,A,3,72,74,73,65,,,,,,,,,1.99,1.75,0.96,2*0E"
2777,325053935,0,0,GSA,1,0,"$GNGSA,A,3,30,02,,,,,,,,,,,1.99,1.75,0.96,3*0F"
2779,325055113,0,0,GSA,1,0,"$GNGSA,A,3,36,,,,,,,,,,,,1.99,1.75,0.96,4*0C"
2781,325056840,0,0,GSV,1,0,"$GPGSV,2,1,08,32,85,298,26,25,61,046,32,28,54,312,29,29,32,128,12,1*65"
2782,325058520,0,0,GSV,1,0,"$GPGSV,2,2,08,31,29,287,21,12,24,045,27,10,22,205,16,03,06,326,21,1*6A"
2807,325155683,0,0,GSV,1,0,"$GPGSV,1,1,04,32,85,298,17,25,61,046,34,28,54,312,18,03,06,326,23,8*64"
2808,325157483,0,0,GSV,1,0,"$GLGSV,2,1,06,72,72,308,27,74,67,336,31,73,30,037,17,65,20,329,36,1*7C"
2809,325158553,0,0,GSV,1,0,"$GLGSV,2,2,06,83,03,071,26,82,02,023,18,1*74"
2810,325160110,0,0,GSV,1,0,"$GAGSV,1,1,04,30,65,059,31,27,57,205,,02,14,042,35,21,07,217,,7*7E"
2811,325161179,0,0,GSV,1,0,"$GAGSV,1,1,02,30,65,059,32,02,14,042,26,1*7F"
2812,325162631,0,0,GSV,1,0,"$GBGSV,1,1,04,36,73,308,26,04,42,143,,03,41,220,,16,,,25,1*4E"
2813,325163412,0,0,GSV,1,0,"$GBGSV,1,1,01,36,73,308,25,4*4F"
2814,325165146,0,0,RMC,1,0,"$GNRMC,111446.000,A,3629.0026,N,13634.4378,E,0.12,182.99,170726,,,A,V*01"
2816,325166298,0,0,VTG,1,0,"$GNVTG,182.99,T,,M,0.12,N,0.23,K,A*2A"
2818,325167075,0,0,MSG,1,0,"$PAIRMSG,90,111446.000,1*5E"
2825,325201420,0,0,MSG,1,0,"$PAIRMSG,91,111446.000,1,0*43"
3055,326041458,0,0,GGA,1,0,"$GNGGA,111447.000,3629.0027,N,13634.4378,E,1,19,1.75,46.5,M,34.9,M,,*46"
3057,326042966,0,0,GLL,1,0,"$GNGLL,3629.0027,N,13634.4378,E,111447.000,A,A*41"
3058,326044293,0,0,GSA,1,0,"$GNGSA,A,3,32,25,28,12,03,,,,,,,,1.99,1.75,0.96,1*00"
3060,326045638,0,0,GSA,1,0,"$GNGSA,A,3,72,74,73,65,,,,,,,,,1.99,1.75,0.96,2*0E"
3062,326046826,0,0,GSA,1,0,"$GNGSA,A,3,30,02,,,,,,,,,,,1.99,1.75,0.96,3*0F"
3064,326047991,0,0,GSA,1,0,"$GNGSA,A,3,36,,,,,,,,,,,,1.99,1.75,0.96,4*0C"
3066,326049714,0,0,GSV,1,0,"$GPGSV,2,1,08,32,85,298,26,25,61,046,32,28,54,312,29,29,32,128,12,1*65"
3067,326051422,0,0,GSV,1,0,"$GPGSV,2,2,08,31,29,287,21,12,24,045,27,10,22,205,16,03,06,326,21,1*6A"
3092,326157420,0,0,GSV,1,0,"$GPGSV,1,1,04,32,85,298,17,25,61,046,34,28,54,312,17,03,06,326,23,8*6B"
3093,326159198,0,0,GSV,1,0,"$GLGSV,2,1,06,72,72,308,27,74,67,336,31,73,30,037,17,65,20,329,36,1*7C"
3094,326160278,0,0,GSV,1,0,"$GLGSV,2,2,06,83,03,071,26,82,02,023,19,1*75"
3095,326161838,0,0,GSV,1,0,"$GAGSV,1,1,04,30,65,059,31,27,57,205,,02,14,042,35,21,07,217,,7*7E"
3096,326162909,0,0,GSV,1,0,"$GAGSV,1,1,02,30,65,059,31,02,14,042,26,1*7C"
3097,326164361,0,0,GSV,1,0,"$GBGSV,1,1,04,36,73,308,26,04,42,143,,03,41,220,,16,,,24,1*4F"
3098,326165134,0,0,GSV,1,0,"$GBGSV,1,1,01,36,73,308,25,4*4F"
3099,326166829,0,0,RMC,1,0,"$GNRMC,111447.000,A,3629.0027,N,13634.4378,E,0.07,182.99,170726,,,A,V*05"
3101,326167910,0,0,VTG,1,0,"$GNVTG,182.99,T,,M,0.07,N,0.13,K,A*2D"
3103,326168651,0,0,MSG,1,0,"$PAIRMSG,90,111447.000,1*5F"
3128,326262719,0,0,MSG,1,0,"$PAIRMSG,91,111447.000,1,0*42"
3347,327061015,0,0,GGA,1,0,"$GNGGA,111448.000,3629.0026,N,13634.4378,E,1,19,1.75,46.5,M,34.9,M,,*48"
3349,327062525,0,0,GLL,1,0,"$GNGLL,3629.0026,N,13634.4378,E,111448.000,A,A*4F"
3350,327063803,0,0,GSA,1,0,"$GNGSA,A,3,32,25,28,12,03,,,,,,,,1.99,1.75,0.96,1*00"
3352,327065074,0,0,GSA,1,0,"$GNGSA,A,3,72,74,73,65,,,,,,,,,1.99,1.75,0.96,2*0E"
3354,327066243,0,0,GSA,1,0,"$GNGSA,A,3,30,02,,,,,,,,,,,1.99,1.75,0.96,3*0F"
3356,327067378,0,0,GSA,1,0,"$GNGSA,A,3,36,,,,,,,,,,,,1.99,1.75,0.96,4*0C"
3358,327069077,0,0,GSV,1,0,"$GPGSV,2,1,08,32,85,298,26,25,61,046,32,28,54,312,29,29,32,128,12,1*65"
3359,327070746,0,0,GSV,1,0,"$GPGSV,2,2,08,31,29,287,21,12,24,045,28,10,22,205,16,03,06,326,21,1*65"
3384,327171030,0,0,GSV,1,0,"$GPGSV,1,1,04,32,85,298,17,25,61,046,34,28,54,312,17,03,06,326,23,8*6B"
3385,327172814,0,0,GSV,1,0,"$GLGSV,2,1,06,72,72,308,27,74,67,336,31,73,30,037,17,65,20,329,36,1*7C"
3386,327173886,0,0,GSV,1,0,"$GLGSV,2,2,06,83,03,071,27,82,02,023,19,1*74"
3387,327175450,0,0,GSV,1,0,"$GAGSV,1,1,04,30,65,059,31,27,57,205,,02,14,042,35,21,07,217,,7*7E"
3388,327176520,0,0,GSV,1,0,"$GAGSV,1,1,02,30,65,059,31,02,14,042,25,1*7F"
3389,327177966,0,0,GSV,1,0,"$GBGSV,1,1,04,36,73,308,26,04,42,143,,03,41,220,,16,,,25,1*4E"
3390,327178742,0,0,GSV,1,0,"$GBGSV,1,1,01,36,73,308,25,4*4F"
3391,327180482,0,0,RMC,1,0,"$GNRMC,111448.000,A,3629.0026,N,13634.4378,E,0.17,182.99,170726,,,A,V*0A"
3393,327181625,0,0,VTG,1,0,"$GNVTG,182.99,T,,M,0.17,N,0.32,K,A*2F"
3395,327182409,0,0,MSG,1,0,"$PAIRMSG,90,111448.000,1*50"
3420,327281220,0,0,MSG,1,0,"$PAIRMSG,91,111448.000,1,0*4D"
3621,328031291,0,0,GGA,1,0,"$GNGGA,111449.000,3629.0026,N,13634.4377,E,1,19,1.75,46.5,M,34.9,M,,*46"
3623,328032746,0,0,GLL,1,0,"$GNGLL,3629.0026,N,13634.4377,E,111449.000,A,A*41"
3624,328034013,0,0,GSA,1,0,"$GNGSA,A,3,32,25,28,12,03,,,,,,,,1.99,1.75,0.96,1*00"
3626,328035334,0,0,GSA,1,0,"$GNGSA,A,3,72,74,73,65,,,,,,,,,1.99,1.75,0.96,2*0E"
3628,328036512,0,0,GSA,1,0,"$GNGSA,A,3,30,02,,,,,,,,,,,1.99,1.75,0.96,3*0F"
3630,328037654,0,0,GSA,1,0,"$GNGSA,A,3,36,,,,,,,,,,,,1.99,1.75,0.96,4*0C"
3632,328039362,0,0,GSV,1,0,"$GPGSV,2,1,08,32,85,298,26,25,61,046,32,28,54,312,30,29,32,128,12,1*6D"
3633,328041027,0,0,GSV,1,0,"$GPGSV,2,2,08,31,29,287,21,12,24,045,28,10,22,205,16,03,06,326,22,1*66"
3658,328136867,0,0,GSV,1,0,"$GPGSV,1,1,04,32,85,298,20,25,61,046,35,28,54,312,18,03,06,326,24,8*66"
3659,328138651,0,0,GSV,1,0,"$GLGSV,2,1,06,72,72,308,27,74,67,336,31,73,30,037,17,65,20,329,36,1*7C"
3660,328139764,0,0,GSV,1,0,"$GLGSV,2,2,06,83,03,071,28,82,02,023,19,1*7B"
3661,328141387,0,0,GSV,1,0,"$GAGSV,1,1,04,30,65,059,31,27,57,205,,02,14,042,35,21,07,217,,7*7E"
3662,328142487,0,0,GSV,1,0,"$GAGSV,1,1,02,30,65,059,32,02,14,042,25,1*7C"
3663,328143960,0,0,GSV,1,0,"$GBGSV,1,1,04,36,73,308,26,04,42,143,,03,41,220,,16,,,25,1*4E"
3664,328144768,0,0,GSV,1,0,"$GBGSV,1,1,01,36,73,308,26,4*4C"
3665,328146466,0,0,RMC,1,0,"$GNRMC,111449.000,A,3629.0026,N,13634.4377,E,0.30,182.99,170726,,,A,V*01"
3667,328147563,0,0,VTG,1,0,"$GNVTG,182.99,T,,M,0.30,N,0.56,K,A*28"
3669,328148321,0,0,MSG,1,0,"$PAIRMSG,90,111449.000,1*51"
3694,328246126,0,0,MSG,1,0,"$PAIRMSG,91,111449.000,1,0*4C"
3913,329061973,0,0,GGA,1,0,"$GNGGA,111450.000,3629.0026,N,13634.4378,E,1,18,1.75,46.4,M,34.9,M,,*41"
3915,329063429,0,0,GLL,1,0,"$GNGLL,3629.0026,N,13634.4378,E,111450.000,A,A*46"
3916,329064735,0,0,GSA,1,0,"$GNGSA,A,3,32,25,28,12,03,,,,,,,,1.99,1.75,0.96,1*00"
3918,329066049,0,0,GSA,1,0,"$GNGSA,A,3,72,74,65,,,,,,,,,,1.99,1.75,0.96,2*0A"
3920,329067279,0,0,GSA,1,0,"$GNGSA,A,3,30,02,,,,,,,,,,,1.99,1.75,0.96,3*0F"
3922,329068411,0,0,GSA,1,0,"$GNGSA,A,3,36,,,,,,,,,,,,1.99,1.75,0.96,4*0C"
3924,329070141,0,0,GSV,1,0,"$GPGSV,2,1,08,32,85,298,25,25,61,046,32,28,54,312,30,29,32,128,,1*6D"
3925,329071820,0,0,GSV,1,0,"$GPGSV,2,2,08,31,29,287,21,12,24,045,28,10,22,205,16,03,06,326,21,1*65"
3950,329165921,0,0,GSV,1,0,"$GPGSV,1,1,04,32,85,298,20,25,61,046,35,28,54,312,18,03,06,326,24,8*66"
3951,329167701,0,0,GSV,1,0,"$GLGSV,2,1,06,72,72,308,27,74,67,336,31,73,30,037,16,65,20,329,36,1*7D"
3952,329168776,0,0,GSV,1,0,"$GLGSV,2,2,06,83,03,071,29,82,02,023,19,1*7A"
3953,329170338,0,0,GSV,1,0,"$GAGSV,1,1,04,30,65,059,31,27,57,205,,02,14,042,35,21,07,217,,7*7E"
3954,329171409,0,0,GSV,1,0,"$GAGSV,1,1,02,30,65,059,32,02,14,042,25,1*7C"
3955,329172855,0,0,GSV,1,0,"$GBGSV,1,1,04,36,73,308,26,04,42,143,,03,41,220,,16,,,25,1*4E"
3956,329173630,0,0,GSV,1,0,"$GBGSV,1,1,01,36,73,308,26,4*4C"
3957,329175326,0,0,RMC,1,0,"$GNRMC,111450.000,A,3629.0026,N,13634.4378,E,0.32,182.99,170726,,,A,V*04"
3959,329176409,0,0,VTG,1,0,"$GNVTG,182.99,T,,M,0.32,N,0.60,K,A*2F"
3961,329177158,0,0,MSG,1,0,"$PAIRMSG,90,111450.000,1*59"
3986,329276018,0,0,MSG,1,0,"$PAIRMSG,91,111450.000,1,0*44"
4193,330056759,0,0,GGA,1,0,"$GNGGA,111451.000,3629.0027,N,13634.4378,E,1,18,1.75,46.4,M,34.9,M,,*41"
4195,330058215,0,0,GLL,1,0,"$GNGLL,3629.0027,N,13634.4378,E,111451.000,A,A*46"
4196,330059485,0,0,GSA,1,0,"$GNGSA,A,3,32,25,28,12,03,,,,,,,,1.99,1.75,0.96,1*00"
4198,330060715,0,0,GSA,1,0,"$GNGSA,A,3,72,74,65,,,,,,,,,,1.99,1.75,0.96,2*0A"
4200,330061877,0,0,GSA,1,0,"$GNGSA,A,3,30,02,,,,,,,,,,,1.99,1.75,0.96,3*0F"
4202,330063042,0,0,GSA,1,0,"$GNGSA,A,3,36,,,,,,,,,,,,1.99,1.75,0.96,4*0C"
4204,330064717,0,0,GSV,1,0,"$GPGSV,2,1,08,32,85,298,25,25,61,046,32,28,54,312,30,29,32,128,,1*6D"
4205,330066437,0,0,GSV,1,0,"$GPGSV,2,2,08,31,29,287,22,12,24,045,28,10,22,205,16,03,06,326,20,1*67"
4230,330156188,0,0,GSV,1,0,"$GPGSV,1,1,04,32,85,298,20,25,61,046,35,28,54,312,18,03,06,326,24,8*66"
4231,330158016,0,0,GSV,1,0,"$GLGSV,2,1,06,72,72,308,27,74,67,336,31,73,30,037,16,65,20,329,36,1*7D"
4232,330159110,0,0,GSV,1,0,"$GLGSV,2,2,06,83,03,071,30,82,02,023,19,1*72"
4233,330160681,0,0,GSV,1,0,"$GAGSV,1,1,04,30,65,059,31,27,57,205,,02,14,042,35,21,07,217,,7*7E"
4234,330161750,0,0,GSV,1,0,"$GAGSV,1,1,02,30,65,059,33,02,14,042,26,1*7E"
4235,330163194,0,0,GSV,1,0,"$GBGSV,1,1,04,36,73,308,26,04,42,143,,03,41,220,,16,,,25,1*4E"
4236,330163975,0,0,GSV,1,0,"$GBGSV,1,1,01,36,73,308,26,4*4C"
4237,330165668,0,0,RMC,1,0,"$GNRMC,111451.000,A,3629.0027,N,13634.4378,E,0.17,182.99,170726,,,A,V*03"
4239,330166760,0,0,VTG,1,0,"$GNVTG,182.99,T,,M,0.17,N,0.32,K,A*2F"
4241,330167517,0,0,MSG,1,0,"$PAIRMSG,90,111451.000,1*58"
4266,330265297,0,0,MSG,1,0,"$PAIRMSG,91,111451.000,1,0*45"
4485,331060526,0,0,GGA,1,0,"$GNGGA,111452.000,3629.0027,N,13634.4378,E,1,18,1.75,46.3,M,34.9,M,,*45"
4487,331061988,0,0,GLL,1,0,"$GNGLL,3629.0027,N,13634.4378,E,111452.000,A,A*45"
4488,331063389,0,0,GSA,1,0,"$GNGSA,A,3,32,25,28,12,03,,,,,,,,1.99,1.75,0.96,1*00"
4490,331064663,0,0,GSA,1,0,"$GNGSA,A,3,72,74,65,,,,,,,,,,1.99,1.75,0.96,2*0A"
4492,331065838,0,0,GSA,1,0,"$GNGSA,A,3,30,02,,,,,,,,,,,1.99,1.75,0.96,3*0F"
4494,331067039,0,0,GSA,1,0,"$GNGSA,A,3,36,,,,,,,,,,,,1.99,1.75,0.96,4*0C"
4496,331068715,0,0,GSV,1,0,"$GPGSV,2,1,08,32,85,298,25,25,61,046,31,28,54,312,30,29,32,128,,1*6E"
4497,331070383,0,0,GSV,1,0,"$GPGSV,2,2,08,31,29,287,21,12,24,045,28,10,22,205,17,03,06,326,20,1*65"
4522,331170063,0,0,GSV,1,0,"$GPGSV,1,1,04,32,85,298,19,25,61,046,34,28,54,312,18,03,06,326,24,8*6D"
4523,331171848,0,0,GSV,1,0,"$GLGSV,2,1,06,72,72,308,27,74,67,336,31,73,30,037,15,65,20,329,36,1*7E"
4524,331172919,0,0,GSV,1,0,"$GLGSV,2,2,06,83,03,071,31,82,02,023,19,1*73"
4525,331174483,0,0,GSV,1,0,"$GAGSV,1,1,04,30,65,059,31,27,57,205,,02,14,042,35,21,07,217,,7*7E"
4526,331175551,0,0,GSV,1,0,"$GAGSV,1,1,02,30,65,059,32,02,14,042,25,1*7C"
4527,331177062,0,0,GSV,1,0,"$GBGSV,2,1,05,36,73,308,26,04,42,143,,03,41,220,,06,38,209,,1*7A"
4528,331177726,0,0,GSV,1,0,"$GBGSV,2,2,05,16,,,25,1*73"
4529,331178498,0,0,GSV,1,0,"$GBGSV,1,1,01,36,73,308,25,4*4F"
4530,331180185,0,0,RMC,1,0,"$GNRMC,111452.000,A,3629.0027,N,13634.4378,E,0.13,182.99,170726,,,A,V*04"
4532,331181274,0,0,VTG,1,0,"$GNVTG,182.99,T,,M,0.13,N,0.25,K,A*2D"
4558,331279685,0,0,MSG,1,0,"$PAIRMSG,90,111452.000,1*5B"
4559,331280556,0,0,MSG,1,0,"$PAIRMSG,91,111452.000,1,0*46"
4754,332001359,0,0,GGA,1,0,"$GNGGA,111453.000,3629.0027,N,13634.4379,E,1,18,1.75,46.3,M,34.9,M,,*45"
4756,332002918,0,0,GLL,1,0,"$GNGLL,3629.0027,N,13634.4379,E,111453.000,A,A*45"
4757,332004266,0,0,GSA,1,0,"$GNGSA,A,3,32,25,28,12,03,,,,,,,,1.99,1.75,0.96,1*00"
4759,332005544,0,0,GSA,1,0,"$GNGSA,A,3,72,74,65,,,,,,,,,,1.99,1.75,0.96,2*0A"
4761,332006731,0,0,GSA,1,0,"$GNGSA,A,3,30,02,,,,,,,,,,,1.99,1.75,0.96,3*0F"
4763,332007927,0,0,GSA,1,0,"$GNGSA,A,3,36,,,,,,,,,,,,1.99,1.75,0.96,4*0C"
4789,332100945,0,0,GSV,1,0,"$GPGSV,2,1,08,32,85,298,25,25,61,046,31,28,54,312,30,29,32,128,,1*6E"
4790,332102726,0,0,GSV,1,0,"$GPGSV,2,2,08,31,29,287,21,12,24,045,28,10,22,205,17,03,06,326,20,1*65"
4791,332104383,0,0,GSV,1,0,"$GPGSV,1,1,04,32,85,298,19,25,61,046,34,28,54,312,18,03,06,326,23,8*6A"
4792,332106033,0,0,GSV,1,0,"$GLGSV,2,1,06,72,72,308,28,74,67,336,31,73,30,037,12,65,20,329,36,1*76"
4793,332107100,0,0,GSV,1,0,"$GLGSV,2,2,06,83,03,071,31,82,02,023,19,1*73"
4794,332108662,0,0,GSV,1,0,"$GAGSV,1,1,04,30,65,059,31,27,57,205,,02,14,042,35,21,07,217,,7*7E"
4795,332109731,0,0,GSV,1,0,"$GAGSV,1,1,02,30,65,059,32,02,14,042,25,1*7C"
4796,332111242,0,0,GSV,1,0,"$GBGSV,2,1,05,36,73,308,26,04,42,143,,03,41,220,,06,38,209,,1*7A"
4797,332111912,0,0,GSV,1,0,"$GBGSV,2,2,05,16,,,25,1*73"
4822,332209945,0,0,GSV,1,0,"$GBGSV,1,1,01,36,73,308,25,4*4F"
4823,332211759,0,0,RMC,1,0,"$GNRMC,111453.000,A,3629.0027,N,13634.4379,E,0.04,182.99,170726,,,A,V*02"
4825,332212841,0,0,VTG,1,0,"$GNVTG,182.99,T,,M,0.04,N,0.08,K,A*24"
4827,332213606,0,0,MSG,1,0,"$PAIRMSG,90,111453.000,1*5A"
4828,332214344,0,0,MSG,1,0,"$PAIRMSG,91,111453.000,1,0*47"
5047,333014162,0,0,GGA,1,0,"$GNGGA,111454.000,3629.0027,N,13634.4379,E,1,18,1.75,46.3,M,34.9,M,,*42"
5049,333015623,0,0,GLL,1,0,"$GNGLL,3629.0027,N,13634.4379,E,111454.000,A,A*42"
5050,333016896,0,0,GSA,1,0,"$GNGSA,A,3,32,25,28,12,03,,,,,,,,1.99,1.75,0.96,1*00"
5052,333018115,0,0,GSA,1,0,"$GNGSA,A,3,72,74,65,,,,,,,,,,1.99,1.75,0.96,2*0A"
5054,333019292,0,0,GSA,1,0,"$GNGSA,A,3,30,02,,,,,,,,,,,1.99,1.75,0.96,3*0F"
5056,333020423,0,0,GSA,1,0,"$GNGSA,A,3,36,,,,,,,,,,,,1.99,1.75,0.96,4*0C"
5058,333022084,0,0,GSV,1,0,"$GPGSV,2,1,08,32,85,298,25,25,61,046,31,28,54,312,30,29,32,128,,1*6E"
5059,333023805,0,0,GSV,1,0,"$GPGSV,2,2,08,31,29,287,21,12,24,045,28,10,22,205,17,03,06,326,19,1*6F"
5084,333122151,0,0,GSV,1,0,"$GPGSV,1,1,04,32,85,298,19,25,61,046,35,28,54,312,18,03,06,326,23,8*6B"
5085,333123936,0,0,GSV,1,0,"$GLGSV,2,1,06,72,72,308,28,74,67,336,31,73,30,037,15,65,20,329,36,1*71"
5086,333125008,0,0,GSV,1,0,"$GLGSV,2,2,06,83,03,071,32,82,02,023,18,1*71"
5087,333126572,0,0,GSV,1,0,"$GAGSV,1,1,04,30,65,059,31,27,57,205,,02,14,042,35,21,07,217,,7*7E"
5088,333127640,0,0,GSV,1,0,"$GAGSV,1,1,02,30,65,059,32,02,14,042,26,1*7F"
5089,333129201,0,0,GSV,1,0,"$GBGSV,2,1,05,36,73,308,26,04,42,143,,03,41,220,,06,38,209,,1*7A"
5090,333129899,0,0,GSV,1,0,"$GBGSV,2,2,05,16,,,25,1*73"
5091,333130695,0,0,GSV,1,0,"$GBGSV,1,1,01,36,73,308,26,4*4C"
5092,333132436,0,0,RMC,1,0,"$GNRMC,111454.000,A,3629.0027,N,13634.4379,E,0.09,182.99,170726,,,A,V*08"
5094,333133559,0,0,VTG,1,0,"$GNVTG,182.99,T,,M,0.09,N,0.17,K,A*27"
5120,333234924,0,0,MSG,1,0,"$PAIRMSG,90,111454.000,1*5D"
5121,333235859,0,0,MSG,1,0,"$PAIRMSG,91,111454.000,1,0*40"
5324,334002329,0,0,GGA,1,0,"$GNGGA,111455.000,3629.0027,N,13634.4379,E,1,18,1.75,46.3,M,34.9,M,,*43"
5326,334003827,0,0,GLL,1,0,"$GNGLL,3629.0027,N,13634.4379,E,111455.000,A,A*43"
5327,334005105,0,0,GSA,1,0,"$GNGSA,A,3,32,25,28,12,03,,,,,,,,1.99,1.75,0.96,1*00"
5329,334006334,0,0,GSA,1,0,"$GNGSA,A,3,72,74,65,,,,,,,,,,1.99,1.75,0.96,2*0A"
5331,334007512,0,0,GSA,1,0,"$GNGSA,A,3,30,02,,,,,,,,,,,1.99,1.75,0.96,3*0F"
5333,334008674,0,0,GSA,1,0,"$GNGSA,A,3,36,,,,,,,,,,,,1.99,1.75,0.96,4*0C"
5361,334105503,0,0,GSV,1,0,"$GPGSV,2,1,08,32,85,298,25,25,61,046,31,28,54,312,30,29,32,128,,1*6E"
5362,334107315,0,0,GSV,1,0,"$GPGSV,2,2,08,31,29,287,21,12,24,045,28,10,22,205,17,03,06,326,19,1*6F"
5363,334108996,0,0,GSV,1,0,"$GPGSV,1,1,04,32,85,298,19,25,61,046,35,28,54,312,18,03,06,326,23,8*6B"
5364,334110683,0,0,GSV,1,0,"$GLGSV,2,1,06,72,72,308,28,74,67,336,31,73,30,037,17,65,20,329,36,1*73"
5365,334111775,0,0,GSV,1,0,"$GLGSV,2,2,06,83,03,071,32,82,02,023,18,1*71"
5366,334113364,0,0,GSV,1,0,"$GAGSV,1,1,04,30,65,059,31,27,57,205,,02,14,042,35,21,07,217,,7*7E"
5367,334114453,0,0,GSV,1,0,"$GAGSV,1,1,02,30,65,059,32,02,14,042,26,1*7F"
5368,334115991,0,0,GSV,1,0,"$GBGSV,2,1,05,36,73,308,26,04,42,143,,03,41,220,,06,38,209,,1*7A"
5369,334116670,0,0,GSV,1,0,"$GBGSV,2,2,05,16,,,25,1*73"
5394,334214449,0,0,GSV,1,0,"$GBGSV,1,1,01,36,73,308,26,4*4C"
5395,334216273,0,0,RMC,1,0,"$GNRMC,111455.000,A,3629.0027,N,13634.4379,E,0.17,182.99,170726,,,A,V*06"
5397,334217355,0,0,VTG,1,0,"$GNVTG,182.99,T,,M,0.17,N,0.32,K,A*2F"
5399,334218097,0,0,MSG,1,0,"$PAIRMSG,90,111455.000,1*5C"
5400,334218826,0,0,MSG,1,0,"$PAIRMSG,91,111455.000,1,0*41"
5617,335003749,0,0,GGA,1,0,"$GNGGA,111456.000,3629.0027,N,13634.4379,E,1,18,1.75,46.3,M,34.9,M,,*40"
5619,335005206,0,0,GLL,1,0,"$GNGLL,3629.0027,N,13634.4379,E,111456.000,A,A*40"
5620,335006480,0,0,GSA,1,0,"$GNGSA,A,3,32,25,28,12,03,,,,,,,,1.99,1.75,0.96,1*00"
5622,335007704,0,0,GSA,1,0,"$GNGSA,A,3,72,74,65,,,,,,,,,,1.99,1.75,0.96,2*0A"
5624,335008867,0,0,GSA,1,0,"$GNGSA,A,3,30,02,,,,,,,,,,,1.99,1.75,0.96,3*0F"
5626,335009999,0,0,GSA,1,0,"$GNGSA,A,3,36,,,,,,,,,,,,1.99,1.75,0.96,4*0C"
5654,335104196,0,0,GSV,1,0,"$GPGSV,2,1,08,32,85,298,26,25,61,046,31,28,54,312,30,29,32,128,,1*6D"
5655,335105981,0,0,GSV,1,0,"$GPGSV,2,2,08,31,29,287,21,12,24,045,28,10,22,205,17,03,06,326,19,1*6F"
5656,335107637,0,0,GSV,1,0,"$GPGSV,1,1,04,32,85,298,19,25,61,046,35,28,54,312,18,03,06,326,23,8*6B"
5657,335109295,0,0,GSV,1,0,"$GLGSV,2,1,06,72,72,308,28,74,67,336,31,73,30,037,17,65,20,329,36,1*73"
5658,335110364,0,0,GSV,1,0,"$GLGSV,2,2,06,83,03,071,32,82,02,023,18,1*71"
5659,335111921,0,0,GSV,1,0,"$GAGSV,1,1,04,30,65,059,31,27,57,205,,02,14,042,35,21,07,217,,7*7E"
5660,335112989,0,0,GSV,1,0,"$GAGSV,1,1,02,30,65,059,32,02,14,042,26,1*7F"
5661,335114507,0,0,GSV,1,0,"$GBGSV,2,1,05,36,73,308,26,04,42,143,,03,41,220,,06,38,209,,1*7A"
5662,335115167,0,0,GSV,1,0,"$GBGSV,2,2,05,16,,,26,1*70"
5687,335216952,0,0,GSV,1,0,"$GBGSV,1,1,01,36,73,308,26,4*4C"
5688,335218776,0,0,RMC,1,0,"$GNRMC,111456.000,A,3629.0027,N,13634.4379,E,0.15,182.99,170726,,,A,V*07"
5690,335219856,0,0,VTG,1,0,"$GNVTG,182.99,T,,M,0.15,N,0.28,K,A*26"
5692,335220603,0,0,MSG,1,0,"$PAIRMSG,90,111456.000,1*5F"
5693,335221373,0,0,MSG,1,0,"$PAIRMSG,91,111456.000,1,0*42"
5910,336027673,0,0,GGA,1,0,"$GNGGA,111457.000,3629.0027,N,13634.4379,E,1,18,1.75,46.3,M,34.9,M,,*41"
5912,336029151,0,0,GLL,1,0,"$GNGLL,3629.0027,N,13634.4379,E,111457.000,A,A*41"
5913,336030471,0,0,GSA,1,0,"$GNGSA,A,3,32,25,28,12,03,,,,,,,,1.99,1.75,0.96,1*00"
5915,336031733,0,0,GSA,1,0,"$GNGSA,A,3,72,74,65,,,,,,,,,,1.99,1.75,0.96,2*0A"
5917,336032946,0,0,GSA,1,0,"$GNGSA,A,3,30,02,,,,,,,,,,,1.99,1.75,0.96,3*0F"
5919,336034080,0,0,GSA,1,0,"$GNGSA,A,3,36,,,,,,,,,,,,1.99,1.75,0.96,4*0C"
5921,336035826,0,0,GSV,1,0,"$GPGSV,2,1,08,32,85,298,26,25,61,046,31,28,54,312,30,29,32,128,,1*6D"
5922,336037550,0,0,GSV,1,0,"$GPGSV,2,2,08,31,29,287,21,12,24,045,28,10,22,205,17,03,06,326,19,1*6F"
5940,336107957,0,0,GSV,1,0,"$GPGSV,1,1,04,32,85,298,19,25,61,046,35,28,54,312,18,03,06,326,23,8*6B"
5941,336109738,0,0,GSV,1,0,"$GLGSV,2,1,06,72,72,308,28,74,67,336,31,73,30,037,18,65,20,329,36,1*7C"
5942,336110807,0,0,GSV,1,0,"$GLGSV,2,2,06,83,03,071,32,82,02,023,18,1*71"
5943,336112371,0,0,GSV,1,0,"$GAGSV,1,1,04,30,65,059,31,27,57,205,,02,14,042,34,21,07,217,,7*7F"
5944,336113440,0,0,GSV,1,0,"$GAGSV,1,1,02,30,65,059,32,02,14,042,26,1*7F"
5945,336114951,0,0,GSV,1,0,"$GBGSV,2,1,05,36,73,308,26,04,42,143,,03,41,220,,06,38,209,,1*7A"
5946,336115615,0,0,GSV,1,0,"$GBGSV,2,2,05,16,,,25,1*73"
5947,336116386,0,0,GSV,1,0,"$GBGSV,1,1,01,36,73,308,26,4*4C"
5948,336118074,0,0,RMC,1,0,"$GNRMC,111457.000,A,3629.0027,N,13634.4379,E,0.15,182.99,170726,,,A,V*06"
5950,336119154,0,0,VTG,1,0,"$GNVTG,182.99,T,,M,0.15,N,0.28,K,A*26"
5976,336218667,0,0,MSG,1,0,"$PAIRMSG,90,111457.000,1*5E"
5977,336219529,0,0,MSG,1,0,"$PAIRMSG,91,111457.000,1,0*43"
6188,336999487,0,0,GGA,1,0,"$GNGGA,111458.000,3629.0027,N,13634.4379,E,1,19,1.67,46.3,M,34.9,M,,*4C"
6190,337000962,0,0,GLL,1,0,"$GNGLL,3629.0027,N,13634.4379,E,111458.000,A,A*4E"
6191,337002230,0,0,GSA,1,0,"$GNGSA,A,3,32,25,28,12,03,,,,,,,,1.92,1.67,0.95,1*0B"
6193,337003536,0,0,GSA,1,0,"$GNGSA,A,3,72,74,73,65,,,,,,,,,1.92,1.67,0.95,2*05"
6195,337004768,0,0,GSA,1,0,"$GNGSA,A,3,30,02,,,,,,,,,,,1.92,1.67,0.95,3*04"
6197,337005980,0,0,GSA,1,0,"$GNGSA,A,3,36,,,,,,,,,,,,1.92,1.67,0.95,4*07"
6211,337064282,0,0,GSV,1,0,"$GPGSV,2,1,08,32,85,298,26,25,61,046,31,28,54,312,30,29,32,128,,1*6D"
6212,337066091,0,0,GSV,1,0,"$GPGSV,2,2,08,31,29,287,21,12,24,045,27,10,22,205,17,03,06,326,19,1*60"
6213,337067753,0,0,GSV,1,0,"$GPGSV,1,1,04,32,85,298,18,25,61,046,35,28,54,312,18,03,06,326,23,8*6A"
6214,337069409,0,0,GSV,1,0,"$GLGSV,2,1,06,72,72,308,28,74,67,336,31,73,30,037,17,65,20,329,36,1*73"
6215,337070479,0,0,GSV,1,0,"$GLGSV,2,2,06,83,03,071,32,82,02,023,18,1*71"
6216,337072038,0,0,GSV,1,0,"$GAGSV,1,1,04,30,65,059,31,27,57,205,,02,14,042,34,21,07,217,,7*7F"
6217,337073109,0,0,GSV,1,0,"$GAGSV,1,1,02,30,65,059,32,02,14,042,26,1*7F"
6218,337074629,0,0,GSV,1,0,"$GBGSV,2,1,06,36,73,310,26,04,42,143,,03,41,220,,06,38,209,,1*70"
6245,337173904,0,0,GSV,1,0,"$GBGSV,2,2,06,30,10,125,,16,,,25,1*44"
6246,337174802,0,0,GSV,1,0,"$GBGSV,1,1,01,36,73,310,25,4*46"
6247,337176550,0,0,RMC,1,0,"$GNRMC,111458.000,A,3629.0027,N,13634.4379,E,0.10,182.99,170726,,,A,V*0C"
6249,337177683,0,0,VTG,1,0,"$GNVTG,182.99,T,,M,0.10,N,0.19,K,A*21"
6251,337178464,0,0,MSG,1,0,"$PAIRMSG,90,111458.000,1*51"
6252,337179209,0,0,MSG,1,0,"$PAIRMSG,91,111458.000,1,0*4C"
6476,338015598,0,0,GGA,1,0,"$GNGGA,111459.000,3629.0027,N,13634.4380,E,1,19,1.67,46.3,M,34.9,M,,*4B"
6478,338017071,0,0,GLL,1,0,"$GNGLL,3629.0027,N,13634.4380,E,111459.000,A,A*49"
6479,338018347,0,0,GSA,1,0,"$GNGSA,A,3,32,25,28,12,03,,,,,,,,1.92,1.67,0.95,1*0B"
6481,338019610,0,0,GSA,1,0,"$GNGSA,A,3,72,74,73,65,,,,,,,,,1.92,1.67,0.95,2*05"
6483,338020775,0,0,GSA,1,0,"$GNGSA,A,3,30,02,,,,,,,,,,,1.92,1.67,0.95,3*04"
6485,338021905,0,0,GSA,1,0,"$GNGSA,A,3,36,,,,,,,,,,,,1.92,1.67,0.95,4*07"
6487,338023653,0,0,GSV,1,0,"$GPGSV,2,1,08,32,85,298,26,25,61,046,31,28,54,312,30,29,32,128,,1*6D"
6488,338025413,0,0,GSV,1,0,"$GPGSV,2,2,08,31,29,287,21,12,24,045,27,10,22,205,17,03,06,326,19,1*60"
6513,338124639,0,0,GSV,1,0,"$GPGSV,1,1,04,32,85,298,17,25,61,046,34,28,54,312,12,03,06,326,23,8*6E"
6514,338126479,0,0,GSV,1,0,"$GLGSV,2,1,06,72,72,308,29,74,67,336,31,73,30,037,17,65,20,329,36,1*72"
6515,338127598,0,0,GSV,1,0,"$GLGSV,2,2,06,83,03,071,32,82,02,023,18,1*71"
6516,338129208,0,0,GSV,1,0,"$GAGSV,1,1,04,30,65,059,31,27,57,205,,02,14,042,34,21,07,217,,7*7F"
6517,338130314,0,0,GSV,1,0,"$GAGSV,1,1,02,30,65,059,32,02,14,042,25,1*7C"
6518,338131832,0,0,GSV,1,0,"$GBGSV,2,1,06,36,73,310,26,04,42,143,,03,41,220,,06,38,209,,1*70"
6519,338132741,0,0,GSV,1,0,"$GBGSV,2,2,06,30,10,125,,16,,,25,1*44"
6520,338133516,0,0,GSV,1,0,"$GBGSV,1,1,01,36,73,310,25,4*46"
6521,338135203,0,0,RMC,1,0,"$GNRMC,111459.000,A,3629.0027,N,13634.4380,E,0.10,182.99,170726,,,A,V*0B"
6523,338136307,0,0,VTG,1,0,"$GNVTG,182.99,T,,M,0.10,N,0.18,K,A*20"
6551,338234889,0,0,MSG,1,0,"$PAIRMSG,90,111459.000,1*50"
6552,338235735,0,0,MSG,1,0,"$PAIRMSG,91,111459.000,1,0*4D"
6769,339034663,0,0,GGA,1,0,"$GNGGA,111500.000,3629.0027,N,13634.4379,E,1,19,1.75,46.2,M,34.9,M,,*42"
6771,339036193,0,0,GLL,1,0,"$GNGLL,3629.0027,N,13634.4379,E,111500.000,A,A*42"
6772,339037564,0,0,GSA,1,0,"$GNGSA,A,3,32,25,28,12,03,,,,,,,,1.99,1.75,0.96,1*00"
6774,339038922,0,0,GSA,1,0,"$GNGSA,A,3,72,74,73,65,,,,,,,,,1.99,1.75,0.96,2*0E"
6776,339040214,0,0,GSA,1,0,"$GNGSA,A,3,30,02,,,,,,,,,,,1.99,1.75,0.96,3*0F"
6778,339041351,0,0,GSA,1,0,"$GNGSA,A,3,36,,,,,,,,,,,,1.99,1.75,0.96,4*0C"
6780,339043093,0,0,GSV,1,0,"$GPGSV,2,1,08,32,85,298,26,25,61,046,31,28,54,312,30,29,32,128,,1*6D"
6781,339044817,0,0,GSV,1,0,"$GPGSV,2,2,08,31,29,287,21,12,24,045,27,10,22,205,16,03,06,326,19,1*61"
6806,339143119,0,0,GSV,1,0,"$GPGSV,1,1,04,32,85,298,17,25,61,046,34,28,54,312,19,03,06,326,23,8*65"
6807,339144905,0,0,GSV,1,0,"$GLGSV,2,1,06,72,72,308,29,74,67,336,31,73,30,037,18,65,20,329,36,1*7D"
6808,339145975,0,0,GSV,1,0,"$GLGSV,2,2,06,83,03,071,32,82,02,023,18,1*71"
6809,339147539,0,0,GSV,1,0,"$GAGSV,1,1,04,30,65,059,31,27,57,205,,02,14,042,34,21,07,217,,7*7F"
6810,339148609,0,0,GSV,1,0,"$GAGSV,1,1,02,30,65,059,32,02,14,042,26,1*7F"
6811,339150122,0,0,GSV,1,0,"$GBGSV,2,1,05,36,73,310,26,04,42,143,,06,38,209,,30,10,125,,1*71"
6812,339150788,0,0,GSV,1,0,"$GBGSV,2,2,05,16,,,25,1*73"
6813,339151559,0,0,GSV,1,0,"$GBGSV,1,1,01,36,73,310,25,4*46"
6814,339153259,0,0,RMC,1,0,"$GNRMC,111500.000,A,3629.0027,N,13634.4379,E,0.09,182.99,170726,,,A,V*08"
6816,339154342,0,0,VTG,1,0,"$GNVTG,182.99,T,,M,0.09,N,0.17,K,A*27"
6844,339247235,0,0,MSG,1,0,"$PAIRMSG,90,111500.000,1*5D"
6845,339248110,0,0,MSG,1,0,"$PAIRMSG,91,111500.000,1,0*40"
7062,340046462,0,0,GGA,1,0,"$GNGGA,111501.000,3629.0027,N,13634.4379,E,1,19,1.67,46.2,M,34.9,M,,*40"
7064,340047925,0,0,GLL,1,0,"$GNGLL,3629.0027,N,13634.4379,E,111501.000,A,A*43"
7065,340049197,0,0,GSA,1,0,"$GNGSA,A,3,32,25,28,12,03,,,,,,,,1.92,1.67,0.95,1*0B"
7067,340050471,0,0,GSA,1,0,"$GNGSA,A,3,72,74,73,65,,,,,,,,,1.92,1.67,0.95,2*05"
7069,340051649,0,0,GSA,1,0,"$GNGSA,A,3,30,02,,,,,,,,,,,1.92,1.67,0.95,3*04"
7071,340052821,0,0,GSA,1,0,"$GNGSA,A,3,36,,,,,,,,,,,,1.92,1.67,0.95,4*07"
7073,340054564,0,0,GSV,1,0,"$GPGSV,2,1,08,32,85,298,27,25,61,046,31,28,54,312,30,29,32,128,,1*6C"
7074,340056349,0,0,GSV,1,0,"$GPGSV,2,2,08,31,29,287,21,12,24,045,26,10,22,205,16,03,06,326,19,1*60"
7099,340152884,0,0,GSV,1,0,"$GPGSV,1,1,04,32,85,298,17,25,61,046,34,28,54,312,17,03,06,326,23,8*6B"
7100,340154670,0,0,GSV,1,0,"$GLGSV,2,1,06,72,72,308,29,74,67,336,31,73,30,037,19,65,20,329,36,1*7C"
7101,340155742,0,0,GSV,1,0,"$GLGSV,2,2,06,83,03,071,32,82,02,023,18,1*71"
7102,340157304,0,0,GSV,1,0,"$GAGSV,1,1,04,30,65,059,31,27,57,205,,02,14,042,34,21,07,217,,7*7F"
7103,340158373,0,0,GSV,1,0,"$GAGSV,1,1,02,30,65,059,32,02,14,042,26,1*7F"
7104,340159884,0,0,GSV,1,0,"$GBGSV,2,1,06,36,73,310,26,04,42,143,,03,41,220,,06,38,209,,1*70"
7105,340160795,0,0,GSV,1,0,"$GBGSV,2,2,06,30,10,125,,16,,,25,1*44"
7106,340161568,0,0,GSV,1,0,"$GBGSV,1,1,01,36,73,310,25,4*46"
7107,340163303,0,0,RMC,1,0,"$GNRMC,111501.000,A,3629.0027,N,13634.4379,E,0.47,182.99,170726,,,A,V*03"
7109,340164461,0,0,VTG,1,0,"$GNVTG,182.99,T,,M,0.47,N,0.86,K,A*25"
7137,340262556,0,0,MSG,1,0,"$PAIRMSG,90,111501.000,1*5C"
7138,340263415,0,0,MSG,1,0,"$PAIRMSG,91,111501.000,1,0*41"
7331,340986318,0,0,010,1,0,"$PAIR010,0,0,2427,472519*34"
7332,340987117,0,0,010,1,0,"$PAIR010,0,3,2427,472639*36"
7333,340987799,0,0,010,1,0,"$PAIR010,0,2,2427,472639*37"
7334,340989469,0,0,GGA,1,0,"$GNGGA,111502.000,3629.0027,N,13634.4379,E,1,19,1.67,46.3,M,34.9,M,,*42"
7360,341077841,0,0,GLL,1,0,"$GNGLL,3629.0027,N,13634.4379,E,111502.000,A,A*40"
7361,341079196,0,0,GSA,1,0,"$GNGSA,A,3,32,25,28,12,03,,,,,,,,1.92,1.67,0.95,1*0B"
7363,341080511,0,0,GSA,1,0,"$GNGSA,A,3,72,74,73,65,,,,,,,,,1.92,1.67,0.95,2*05"
7365,341081675,0,0,GSA,1,0,"$GNGSA,A,3,30,02,,,,,,,,,,,1.92,1.67,0.95,3*04"
7367,341082795,0,0,GSA,1,0,"$GNGSA,A,3,36,,,,,,,,,,,,1.92,1.67,0.95,4*07"
7369,341084494,0,0,GSV,1,0,"$GPGSV,2,1,08,32,85,298,27,25,61,046,31,28,54,312,30,29,32,128,,1*6C"
7370,341086243,0,0,GSV,1,0,"$GPGSV,2,2,08,31,29,287,21,12,24,045,26,10,22,205,16,03,06,326,19,1*60"
7371,341087916,0,0,GSV,1,0,"$GPGSV,1,1,04,32,85,298,17,25,61,046,34,28,54,312,18,03,06,326,23,8*64"
7372,341089583,0,0,GSV,1,0,"$GLGSV,2,1,06,72,72,308,29,74,67,336,31,73,30,037,20,65,20,329,36,1*76"
7397,341183432,0,0,GSV,1,0,"$GLGSV,2,2,06,83,03,071,33,82,02,023,18,1*70"
7398,341185109,0,0,GSV,1,0,"$GAGSV,1,1,04,30,65,059,31,27,57,205,,02,14,042,34,21,07,217,,7*7F"
7399,341186215,0,0,GSV,1,0,"$GAGSV,1,1,02,30,65,059,32,02,14,042,26,1*7F"
7400,341187795,0,0,GSV,1,0,"$GBGSV,2,1,06,36,73,310,26,04,42,143,,03,41,220,,06,38,209,,1*70"
7401,341188721,0,0,GSV,1,0,"$GBGSV,2,2,06,30,10,125,,16,,,25,1*44"
7402,341189518,0,0,GSV,1,0,"$GBGSV,1,1,01,36,73,310,25,4*46"
7403,341191211,0,0,RMC,1,0,"$GNRMC,111502.000,A,3629.0027,N,13634.4379,E,0.26,182.99,170726,,,A,V*07"
7405,341192339,0,0,VTG,1,0,"$GNVTG,182.99,T,,M,0.26,N,0.48,K,A*20"
7407,341193187,0,0,MSG,1,0,"$PAIRMSG,90,111502.000,1*5F"
7408,341193932,0,0,MSG,1,0,"$PAIRMSG,91,111502.000,1,0*42"
7627,342000632,0,0,GGA,1,0,"$GNGGA,111503.000,3629.0027,N,13634.4378,E,1,19,1.67,46.3,M,34.9,M,,*42"
7629,342002092,0,0,GLL,1,0,"$GNGLL,3629.0027,N,13634.4378,E,111503.000,A,A*40"
7630,342003421,0,0,GSA,1,0,"$GNGSA,A,3,32,25,28,12,03,,,,,,,,1.92,1.67,0.95,1*0B"
7632,342004696,0,0,GSA,1,0,"$GNGSA,A,3,72,74,73,65,,,,,,,,,1.92,1.67,0.95,2*05"
7634,342005925,0,0,GSA,1,0,"$GNGSA,A,3,30,02,,,,,,,,,,,1.92,1.67,0.95,3*04"
7636,342007174,0,0,GSA,1,0,"$GNGSA,A,3,36,,,,,,,,,,,,1.92,1.67,0.95,4*07"
7662,342103142,0,0,GSV,1,0,"$GPGSV,2,1,08,32,85,298,27,25,61,046,31,28,54,312,30,29,32,128,,1*6C"
7663,342104921,0,0,GSV,1,0,"$GPGSV,2,2,08,31,29,287,21,12,24,045,25,10,22,205,15,03,06,326,19,1*60"
7664,342106575,0,0,GSV,1,0,"$GPGSV,1,1,04,32,85,298,17,25,61,046,34,28,54,312,18,03,06,326,23,8*64"
7665,342108260,0,0,GSV,1,0,"$GLGSV,2,1,06,72,72,308,29,74,67,336,31,73,30,037,21,65,20,329,36,1*77"
7666,342109386,0,0,GSV,1,0,"$GLGSV,2,2,06,83,03,071,33,82,02,023,18,1*70"
7667,342110970,0,0,GSV,1,0,"$GAGSV,1,1,04,30,65,059,31,27,57,205,,02,14,042,34,21,07,217,,7*7F"
7668,342112059,0,0,GSV,1,0,"$GAGSV,1,1,02,30,65,059,32,02,14,042,26,1*7F"
7669,342113579,0,0,GSV,1,0,"$GBGSV,2,1,06,36,73,310,26,04,42,143,,03,41,220,,06,38,209,,1*70"
7694,342209528,0,0,GSV,1,0,"$GBGSV,2,2,06,30,10,125,,16,,,24,1*45"
7695,342210463,0,0,GSV,1,0,"$GBGSV,1,1,01,36,73,310,25,4*46"
7696,342212216,0,0,RMC,1,0,"$GNRMC,111503.000,A,3629.0027,N,13634.4378,E,0.25,182.99,170726,,,A,V*04"
7698,342213373,0,0,VTG,1,0,"$GNVTG,182.99,T,,M,0.25,N,0.47,K,A*2C"
7700,342214132,0,0,MSG,1,0,"$PAIRMSG,90,111503.000,1*5E"
7701,342214864,0,0,MSG,1,0,"$PAIRMSG,91,111503.000,1,0*43"
7920,343017776,0,0,GGA,1,0,"$GNGGA,111504.000,3629.0026,N,13634.4379,E,1,19,1.67,46.3,M,34.9,M,,*45"
7922,343019230,0,0,GLL,1,0,"$GNGLL,3629.0026,N,13634.4379,E,111504.000,A,A*47"
7923,343020509,0,0,GSA,1,0,"$GNGSA,A,3,32,25,28,12,03,,,,,,,,1.92,1.67,0.95,1*0B"
7925,343021776,0,0,GSA,1,0,"$GNGSA,A,3,72,74,73,65,,,,,,,,,1.92,1.67,0.95,2*05"
7927,343022998,0,0,GSA,1,0,"$GNGSA,A,3,30,02,,,,,,,,,,,1.92,1.67,0.95,3*04"
7929,343024144,0,0,GSA,1,0,"$GNGSA,A,3,36,,,,,,,,,,,,1.92,1.67,0.95,4*07"
7931,343025832,0,0,GSV,1,0,"$GPGSV,2,1,08,32,85,298,27,25,61,046,31,28,54,312,30,29,32,128,,1*6C"
7932,343027501,0,0,GSV,1,0,"$GPGSV,2,2,08,31,29,287,21,12,24,045,25,10,22,205,15,03,06,326,19,1*60"
7957,343121934,0,0,GSV,1,0,"$GPGSV,1,1,04,32,85,298,18,25,61,046,34,28,54,312,19,03,06,326,24,8*6D"
7958,343123709,0,0,GSV,1,0,"$GLGSV,2,1,07,72,72,308,29,74,67,336,31,71,47,162,,73,30,037,22,1*79"
7959,343125112,0,0,GSV,1,0,"$GLGSV,2,2,07,65,20,329,36,83,03,071,33,82,02,023,18,1*4D"
7960,343126704,0,0,GSV,1,0,"$GAGSV,1,1,04,30,65,059,31,27,57,205,,02,14,042,34,21,07,217,,7*7F"
7961,343127817,0,0,GSV,1,0,"$GAGSV,1,1,02,30,65,059,32,02,14,042,26,1*7F"
7962,343129342,0,0,GSV,1,0,"$GBGSV,2,1,06,36,73,310,27,04,42,143,,03,41,220,,06,38,209,,1*71"
7963,343130256,0,0,GSV,1,0,"$GBGSV,2,2,06,30,10,125,,16,,,23,1*42"
7964,343131023,0,0,GSV,1,0,"$GBGSV,1,1,01,36,73,310,25,4*46"
7965,343132762,0,0,RMC,1,0,"$GNRMC,111504.000,A,3629.0026,N,13634.4379,E,0.23,182.99,170726,,,A,V*05"
7991,343225883,0,0,VTG,1,0,"$GNVTG,182.99,T,,M,0.23,N,0.42,K,A*2F"
7993,343226788,0,0,MSG,1,0,"$PAIRMSG,90,111504.000,1*59"
7994,343227529,0,0,MSG,1,0,"$PAIRMSG,91,111504.000,1,0*44"
8199,343982896,0,0,GGA,1,0,"$GNGGA,111505.000,3629.0026,N,13634.4379,E,1,19,1.67,46.2,M,34.9,M,,*45"
8225,344075865,0,0,GLL,1,0,"$GNGLL,3629.0026,N,13634.4379,E,111505.000,A,A*46"
8226,344077232,0,0,GSA,1,0,"$GNGSA,A,3,32,25,28,12,03,,,,,,,,1.92,1.67,0.95,1*0B"
8228,344078555,0,0,GSA,1,0,"$GNGSA,A,3,72,74,73,65,,,,,,,,,1.92,1.67,0.95,2*05"
8230,344079734,0,0,GSA,1,0,"$GNGSA,A,3,30,02,,,,,,,,,,,1.92,1.67,0.95,3*04"
8232,344080860,0,0,GSA,1,0,"$GNGSA,A,3,36,,,,,,,,,,,,1.92,1.67,0.95,4*07"
8234,344082636,0,0,GSV,1,0,"$GPGSV,2,1,08,32,85,298,27,25,61,046,31,28,54,312,30,29,32,128,,1*6C"
8235,344084372,0,0,GSV,1,0,"$GPGSV,2,2,08,31,29,287,20,12,24,045,25,10,22,205,15,03,06,326,20,1*6B"
8236,344086078,0,0,GSV,1,0,"$GPGSV,1,1,04,32,85,298,18,25,61,046,34,28,54,312,17,03,06,326,24,8*63"
8237,344087759,0,0,GSV,1,0,"$GLGSV,2,1,06,72,72,308,29,74,67,336,31,73,30,037,22,65,20,329,36,1*74"
8262,344196309,0,0,GSV,1,0,"$GLGSV,2,2,06,83,03,071,33,82,02,023,18,1*70"
8263,344197988,0,0,GSV,1,0,"$GAGSV,1,1,04,30,65,059,31,27,57,205,,02,14,042,34,21,07,217,,7*7F"
8264,344199056,0,0,GSV,1,0,"$GAGSV,1,1,02,30,65,059,32,02,14,042,26,1*7F"
8265,344200574,0,0,GSV,1,0,"$GBGSV,2,1,06,36,73,310,27,04,42,143,,03,41,220,,06,38,209,,1*71"
8266,344201486,0,0,GSV,1,0,"$GBGSV,2,2,06,30,10,125,,16,,,24,1*45"
8267,344202260,0,0,GSV,1,0,"$GBGSV,1,1,01,36,73,310,25,4*46"
8268,344203949,0,0,RMC,1,0,"$GNRMC,111505.000,A,3629.0026,N,13634.4379,E,0.15,182.99,170726,,,A,V*01"
8270,344205029,0,0,VTG,1,0,"$GNVTG,182.99,T,,M,0.15,N,0.28,K,A*26"
8272,344205780,0,0,MSG,1,0,"$PAIRMSG,90,111505.000,1*58"
8273,344206515,0,0,MSG,1,0,"$PAIRMSG,91,111505.000,1,0*45"
8492,345030407,0,0,GGA,1,0,"$GNGGA,111506.000,3629.0026,N,13634.4379,E,1,19,1.67,46.2,M,34.9,M,,*46"
8494,345031861,0,0,GLL,1,0,"$GNGLL,3629.0026,N,13634.4379,E,111506.000,A,A*45"
8495,345033132,0,0,GSA,1,0,"$GNGSA,A,3,32,25,28,12,03,,,,,,,,1.92,1.67,0.95,1*0B"
8497,345034458,0,0,GSA,1,0,"$GNGSA,A,3,72,74,73,65,,,,,,,,,1.92,1.67,0.95,2*05"
8499,345035640,0,0,GSA,1,0,"$GNGSA,A,3,30,02,,,,,,,,,,,1.92,1.67,0.95,3*04"
8501,345036783,0,0,GSA,1,0,"$GNGSA,A,3,36,,,,,,,,,,,,1.92,1.67,0.95,4*07"
8503,345038459,0,0,GSV,1,0,"$GPGSV,2,1,08,32,85,298,27,25,61,046,31,28,54,312,30,29,32,128,,1*6C"
8504,345040121,0,0,GSV,1,0,"$GPGSV,2,2,08,31,29,287,20,12,24,045,25,10,22,205,15,03,06,326,20,1*6B"
8529,345141714,0,0,GSV,1,0,"$GPGSV,1,1,04,32,85,298,18,25,61,046,34,28,54,312,17,03,06,326,24,8*63"
8530,345143464,0,0,GSV,1,0,"$GLGSV,2,1,07,72,72,308,29,74,67,336,31,75,35,251,,73,30,037,23,1*7A"
8531,345144827,0,0,GSV,1,0,"$GLGSV,2,2,07,65,20,329,36,83,03,071,33,82,02,023,18,1*4D"
8532,345146394,0,0,GSV,1,0,"$GAGSV,1,1,04,30,65,059,31,27,57,205,,02,14,042,34,21,07,217,,7*7F"
8533,345147462,0,0,GSV,1,0,"$GAGSV,1,1,02,30,65,059,32,02,14,042,26,1*7F"
8534,345148973,0,0,GSV,1,0,"$GBGSV,2,1,06,36,73,310,27,04,42,143,,03,41,220,,06,38,209,,1*71"
8535,345149886,0,0,GSV,1,0,"$GBGSV,2,2,06,30,10,125,,16,,,24,1*45"
8536,345150657,0,0,GSV,1,0,"$GBGSV,1,1,01,36,73,310,25,4*46"
8537,345152351,0,0,RMC,1,0,"$GNRMC,111506.000,A,3629.0026,N,13634.4379,E,0.09,182.99,170726,,,A,V*0F"
8563,345249967,0,0,VTG,1,0,"$GNVTG,182.99,T,,M,0.09,N,0.16,K,A*26"
8565,345250874,0,0,MSG,1,0,"$PAIRMSG,90,111506.000,1*5B"
8566,345251663,0,0,MSG,1,0,"$PAIRMSG,91,111506.000,1,0*46"
8785,346072759,0,0,GGA,1,0,"$GNGGA,111507.000,3629.0026,N,13634.4378,E,1,19,1.67,46.2,M,34.9,M,,*46"
8787,346074211,0,0,GLL,1,0,"$GNGLL,3629.0026,N,13634.4378,E,111507.000,A,A*45"
8788,346075486,0,0,GSA,1,0,"$GNGSA,A,3,32,25,28,12,03,,,,,,,,1.92,1.67,0.95,1*0B"
8790,346076753,0,0,GSA,1,0,"$GNGSA,A,3,72,74,73,65,,,,,,,,,1.92,1.67,0.95,2*05"
8792,346077925,0,0,GSA,1,0,"$GNGSA,A,3,30,02,,,,,,,,,,,1.92,1.67,0.95,3*04"
8794,346079055,0,0,GSA,1,0,"$GNGSA,A,3,36,,,,,,,,,,,,1.92,1.67,0.95,4*07"
8796,346080723,0,0,GSV,1,0,"$GPGSV,2,1,08,32,85,298,27,25,61,046,31,28,54,312,30,29,32,128,,1*6C"
8797,346082394,0,0,GSV,1,0,"$GPGSV,2,2,08,31,29,287,20,12,24,045,25,10,22,205,15,03,06,326,20,1*6B"
8822,346181011,0,0,GSV,1,0,"$GPGSV,1,1,04,32,85,298,19,25,61,046,34,28,54,312,18,03,06,326,24,8*6D"
8823,346182798,0,0,GSV,1,0,"$GLGSV,2,1,06,72,72,308,29,74,67,336,31,73,30,037,24,65,20,329,36,1*72"
8824,346183870,0,0,GSV,1,0,"$GLGSV,2,2,06,83,03,071,33,82,02,023,18,1*70"
8825,346185479,0,0,GSV,1,0,"$GAGSV,1,1,04,30,65,059,31,27,57,205,,02,14,042,34,21,07,217,,7*7F"
8826,346186589,0,0,GSV,1,0,"$GAGSV,1,1,02,30,65,059,32,02,14,042,26,1*7F"
8827,346188144,0,0,GSV,1,0,"$GBGSV,2,1,07,36,73,310,27,04,42,143,,03,41,220,,06,38,209,,1*70"
8828,346189357,0,0,GSV,1,0,"$GBGSV,2,2,07,30,10,125,,08,02,181,,16,,,24,1*76"
8829,346190155,0,0,GSV,1,0,"$GBGSV,1,1,01,36,73,310,25,4*46"
8830,346191892,0,0,RMC,1,0,"$GNRMC,111507.000,A,3629.0026,N,13634.4378,E,0.32,182.99,170726,,,A,V*07"
8856,346286290,0,0,VTG,1,0,"$GNVTG,182.99,T,,M,0.32,N,0.60,K,A*2F"
8858,346287196,0,0,MSG,1,0,"$PAIRMSG,90,111507.000,1*5A"
8859,346287943,0,0,MSG,1,0,"$PAIRMSG,91,111507.000,1,0*47"
9051,346999396,0,0,GGA,1,0,"$GNGGA,111508.000,3629.0026,N,13634.4378,E,1,19,1.67,46.2,M,34.9,M,,*49"
9053,347000858,0,0,GLL,1,0,"$GNGLL,3629.0026,N,13634.4378,E,111508.000,A,A*4A"
9054,347002170,0,0,GSA,1,0,"$GNGSA,A,3,32,25,28,12,03,,,,,,,,1.92,1.67,0.95,1*0B"
9056,347003521,0,0,GSA,1,0,"$GNGSA,A,3,72,74,73,65,,,,,,,,,1.92,1.67,0.95,2*05"
9058,347004749,0,0,GSA,1,0,"$GNGSA,A,3,30,02,,,,,,,,,,,1.92,1.67,0.95,3*04"
9060,347005941,0,0,GSA,1,0,"$GNGSA,A,3,36,,,,,,,,,,,,1.92,1.67,0.95,4*07"
9086,347100828,0,0,GSV,1,0,"$GPGSV,2,1,08,32,85,298,26,25,61,046,31,28,54,312,30,29,32,128,,1*6D"
9087,347102609,0,0,GSV,1,0,"$GPGSV,2,2,08,31,29,287,20,12,24,045,25,10,22,205,15,03,06,326,20,1*6B"
9088,347104269,0,0,GSV,1,0,"$GPGSV,1,1,04,32,85,298,19,25,61,046,34,28,54,312,18,03,06,326,24,8*6D"
9089,347105921,0,0,GSV,1,0,"$GLGSV,2,1,06,72,72,308,29,74,67,336,31,73,30,037,24,65,20,329,36,1*72"
9090,347106989,0,0,GSV,1,0,"$GLGSV,2,2,06,83,03,071,33,82,02,023,18,1*70"
9091,347108551,0,0,GSV,1,0,"$GAGSV,1,1,04,30,65,059,31,27,57,205,,02,14,042,34,21,07,217,,7*7F"
9092,347109620,0,0,GSV,1,0,"$GAGSV,1,1,02,30,65,059,33,02,14,042,27,1*7F"
9093,347111132,0,0,GSV,1,0,"$GBGSV,2,1,08,36,73,310,27,04,42,143,,03,41,220,,06,38,209,,1*7F"
9118,347210457,0,0,GSV,1,0,"$GBGSV,2,2,08,30,10,125,,08,02,181,,11,02,150,,16,,,24,1*4F"
9119,347211367,0,0,GSV,1,0,"$GBGSV,1,1,01,36,73,310,25,4*46"
9120,347213055,0,0,RMC,1,0,"$GNRMC,111508.000,A,3629.0026,N,13634.4378,E,0.23,182.99,170726,,,A,V*08"
9122,347214137,0,0,VTG,1,0,"$GNVTG,182.99,T,,M,0.23,N,0.43,K,A*2E"
9124,347214882,0,0,MSG,1,0,"$PAIRMSG,90,111508.000,1*55"
9125,347215619,0,0,MSG,1,0,"$PAIRMSG,91,111508.000,1,0*48"
9339,348026226,0,0,GGA,1,0,"$GNGGA,111509.000,3629.0025,N,13634.4377,E,1,19,1.67,46.2,M,34.9,M,,*44"
9341,348027684,0,0,GLL,1,0,"$GNGLL,3629.0025,N,13634.4377,E,111509.000,A,A*47"
9342,348028951,0,0,GSA,1,0,"$GNGSA,A,3,32,25,28,12,03,,,,,,,,1.92,1.67,0.95,1*0B"
9344,348030222,0,0,GSA,1,0,"$GNGSA,A,3,72,74,73,65,,,,,,,,,1.92,1.67,0.95,2*05"
9346,348031431,0,0,GSA,1,0,"$GNGSA,A,3,30,02,,,,,,,,,,,1.92,1.67,0.95,3*04"
9348,348032633,0,0,GSA,1,0,"$GNGSA,A,3,36,,,,,,,,,,,,1.92,1.67,0.95,4*07"
9350,348034359,0,0,GSV,1,0,"$GPGSV,2,1,08,32,85,298,26,25,61,046,31,28,54,312,30,29,32,128,,1*6D"
9351,348036113,0,0,GSV,1,0,"$GPGSV,2,2,08,31,29,287,20,12,24,045,25,10,22,205,15,03,06,326,20,1*6B"
9376,348135147,0,0,GSV,1,0,"$GPGSV,1,1,04,32,85,298,19,25,61,046,34,28,54,312,18,03,06,326,24,8*6D"
9377,348136928,0,0,GSV,1,0,"$GLGSV,2,1,06,72,72,308,29,74,67,336,31,73,30,037,25,65,20,329,36,1*73"
9378,348138000,0,0,GSV,1,0,"$GLGSV,2,2,06,83,03,071,33,82,02,023,18,1*70"
9379,348139562,0,0,GSV,1,0,"$GAGSV,1,1,04,30,65,059,31,27,57,205,,02,14,042,34,21,07,217,,7*7F"
9380,348140631,0,0,GSV,1,0,"$GAGSV,1,1,02,30,65,059,33,02,14,042,27,1*7F"
9381,348142144,0,0,GSV,1,0,"$GBGSV,2,1,08,36,73,310,27,04,42,143,,03,41,220,,06,38,209,,1*7F"
9382,348143553,0,0,GSV,1,0,"$GBGSV,2,2,08,30,10,125,,08,02,181,,11,02,150,,16,,,24,1*4F"
9383,348144330,0,0,GSV,1,0,"$GBGSV,1,1,01,36,73,310,25,4*46"
9384,348146018,0,0,RMC,1,0,"$GNRMC,111509.000,A,3629.0025,N,13634.4377,E,0.20,182.99,170726,,,A,V*06"
9410,348240128,0,0,VTG,1,0,"$GNVTG,182.99,T,,M,0.20,N,0.37,K,A*2E"
9412,348241047,0,0,MSG,1,0,"$PAIRMSG,90,111509.000,1*54"
9413,348241790,0,0,MSG,1,0,"$PAIRMSG,91,111509.000,1,0*49"
9627,349035276,0,0,GGA,1,0,"$GNGGA,111510.000,3629.0025,N,13634.4377,E,1,19,1.67,46.2,M,34.9,M,,*4C"
9629,349036779,0,0,GLL,1,0,"$GNGLL,3629.0025,N,13634.4377,E,111510.000,A,A*4F"
9630,349038090,0,0,GSA,1,0,"$GNGSA,A,3,32,25,28,12,03,,,,,,,,1.92,1.67,0.95,1*0B"
9632,349039400,0,0,GSA,1,0,"$GNGSA,A,3,72,74,73,65,,,,,,,,,1.92,1.67,0.95,2*05"
9634,349040631,0,0,GSA,1,0,"$GNGSA,A,3,30,02,,,,,,,,,,,1.92,1.67,0.95,3*04"
9636,349041765,0,0,GSA,1,0,"$GNGSA,A,3,36,,,,,,,,,,,,1.92,1.67,0.95,4*07"
9638,349043432,0,0,GSV,1,0,"$GPGSV,2,1,08,32,85,298,26,25,61,046,31,28,54,312,30,29,32,128,,1*6D"
9639,349045156,0,0,GSV,1,0,"$GPGSV,2,2,08,31,29,287,20,12,24,045,24,10,22,205,15,03,06,326,20,1*6A"
9664,349139867,0,0,GSV,1,0,"$GPGSV,1,1,04,32,85,298,19,25,61,046,34,28,54,312,18,03,06,326,24,8*6D"
9665,349141651,0,0,GSV,1,0,"$GLGSV,2,1,06,72,72,308,29,74,67,336,31,73,30,037,25,65,20,329,36,1*73"
9666,349142721,0,0,GSV,1,0,"$GLGSV,2,2,06,83,03,071,32,82,02,023,18,1*71"
9667,349144284,0,0,GSV,1,0,"$GAGSV,1,1,04,30,65,059,31,27,57,205,,02,14,042,34,21,07,217,,7*7F"
9668,349145353,0,0,GSV,1,0,"$GAGSV,1,1,02,30,65,059,33,02,14,042,27,1*7F"
9669,349146865,0,0,GSV,1,0,"$GBGSV,2,1,07,36,73,310,27,04,42,143,,06,38,209,,30,10,125,,1*72"
9670,349148023,0,0,GSV,1,0,"$GBGSV,2,2,07,08,02,181,,11,02,150,,16,,,25,1*75"
9671,349148798,0,0,GSV,1,0,"$GBGSV,1,1,01,36,73,310,25,4*46"
9672,349150494,0,0,RMC,1,0,"$GNRMC,111510.000,A,3629.0025,N,13634.4377,E,0.13,182.99,170726,,,A,V*0E"
9698,349252495,0,0,VTG,1,0,"$GNVTG,182.99,T,,M,0.13,N,0.23,K,A*2B"
9700,349253406,0,0,MSG,1,0,"$PAIRMSG,90,111510.000,1*5C"
9701,349254137,0,0,MSG,1,0,"$PAIRMSG,91,111510.000,1,0*41"
9905,350014597,0,0,GGA,1,0,"$GNGGA,111511.000,3629.0025,N,13634.4376,E,1,19,1.67,46.2,M,34.9,M,,*4C"
9907,350016060,0,0,GLL,1,0,"$GNGLL,3629.0025,N,13634.4376,E,111511.000,A,A*4F"
9908,350017333,0,0,GSA,1,0,"$GNGSA,A,3,32,25,28,12,03,,,,,,,,1.92,1.67,0.95,1*0B"
9910,350018605,0,0,GSA,1,0,"$GNGSA,A,3,72,74,73,65,,,,,,,,,1.92,1.67,0.95,2*05"
9912,350019765,0,0,GSA,1,0,"$GNGSA,A,3,30,02,,,,,,,,,,,1.92,1.67,0.95,3*04"
9914,350020894,0,0,GSA,1,0,"$GNGSA,A,3,36,,,,,,,,,,,,1.92,1.67,0.95,4*07"
9916,350022551,0,0,GSV,1,0,"$GPGSV,2,1,08,32,85,298,26,25,61,046,31,28,54,312,30,29,32,128,,1*6D"
9917,350024270,0,0,GSV,1,0,"$GPGSV,2,2,08,31,29,287,20,12,24,045,24,10,22,205,15,03,06,326,20,1*6A"
9942,350125822,0,0,GSV,1,0,"$GPGSV,1,1,04,32,85,298,19,25,61,046,35,28,54,312,18,03,06,326,24,8*6C"
9943,350127609,0,0,GSV,1,0,"$GLGSV,2,1,06,72,72,308,29,74,67,336,31,73,30,037,25,65,20,329,36,1*73"
9944,350128679,0,0,GSV,1,0,"$GLGSV,2,2,06,83,03,071,32,82,02,023,18,1*71"
9945,350130289,0,0,GSV,1,0,"$GAGSV,1,1,04,30,65,059,31,27,57,205,,02,14,042,34,21,07,217,,7*7F"
9946,350131409,0,0,GSV,1,0,"$GAGSV,1,1,02,30,65,059,33,02,14,042,27,1*7F"
9947,350132969,0,0,GSV,1,0,"$GBGSV,2,1,08,36,73,310,27,04,42,143,,03,41,220,,06,38,209,,1*7F"
9948,350134401,0,0,GSV,1,0,"$GBGSV,2,2,08,30,10,125,,08,02,181,,11,02,150,,16,,,25,1*4E"
9949,350135208,0,0,GSV,1,0,"$GBGSV,1,1,01,36,73,310,25,4*46"
9950,350136906,0,0,RMC,1,0,"$GNRMC,111511.000,A,3629.0025,N,13634.4376,E,0.24,182.99,170726,,,A,V*0A"
9976,350230041,0,0,VTG,1,0,"$GNVTG,182.99,T,,M,0.24,N,0.45,K,A*2F"
9978,350230959,0,0,MSG,1,0,"$PAIRMSG,90,111511.000,1*5D"
9979,350231700,0,0,MSG,1,0,"$PAIRMSG,91,111511.000,1,0*40"
10198,351051483,0,0,GGA,1,0,"$GNGGA,111512.000,3629.0025,N,13634.4376,E,1,19,1.67,46.2,M,34.9,M,,*4F"
10200,351052954,0,0,GLL,1,0,"$GNGLL,3629.0025,N,13634.4376,E,111512.000,A,A*4C"
10201,351054257,0,0,GSA,1,0,"$GNGSA,A,3,32,25,28,12,03,,,,,,,,1.92,1.67,0.95,1*0B"
10203,351055647,0,0,GSA,1,0,"$GNGSA,A,3,72,74,73,65,,,,,,,,,1.92,1.67,0.95,2*05"
10205,351056863,0,0,GSA,1,0,"$GNGSA,A,3,30,02,,,,,,,,,,,1.92,1.67,0.95,3*04"
10207,351058032,0,0,GSA,1,0,"$GNGSA,A,3,36,,,,,,,,,,,,1.92,1.67,0.95,4*07"
10209,351059717,0,0,GSV,1,0,"$GPGSV,2,1,08,32,85,298,26,25,61,046,31,28,54,312,30,29,32,128,,1*6D"
10210,351061428,0,0,GSV,1,0,"$GPGSV,2,2,08,31,29,287,20,12,24,045,23,10,22,205,15,03,06,326,20,1*6D"
10235,351159272,0,0,GSV,1,0,"$GPGSV,1,1,04,32,85,298,19,25,61,046,34,28,54,312,18,03,06,326,23,8*6A"
10236,351161050,0,0,GSV,1,0,"$GLGSV,2,1,06,72,72,308,28,74,67,336,31,73,30,037,25,65,20,329,36,1*72"
10237,351162119,0,0,GSV,1,0,"$GLGSV,2,2,06,83,03,071,33,82,02,023,18,1*70"
10238,351163682,0,0,GSV,1,0,"$GAGSV,1,1,04,30,65,059,31,27,57,205,,02,14,042,34,21,07,217,,7*7F"
10239,351164751,0,0,GSV,1,0,"$GAGSV,1,1,02,30,65,059,32,02,14,042,27,1*7E"
10240,351166271,0,0,GSV,1,0,"$GBGSV,3,1,09,36,73,310,27,07,59,305,,04,42,143,,03,41,220,,1*74"
10241,351167740,0,0,GSV,1,0,"$GBGSV,3,2,09,06,38,209,,30,10,125,,11,02,150,,08,02,181,,1*78"
10242,351168405,0,0,GSV,1,0,"$GBGSV,3,3,09,16,,,25,1*7F"
10243,351169174,0,0,GSV,1,0,"$GBGSV,1,1,01,36,73,310,25,4*46"
10268,351269587,0,0,RMC,1,0,"$GNRMC,111512.000,A,3629.0025,N,13634.4376,E,0.56,182.99,170726,,,A,V*0C"
10270,351270811,0,0,VTG,1,0,"$GNVTG,182.99,T,,M,0.56,N,1.03,K,A*29"
10272,351271573,0,0,MSG,1,0,"$PAIRMSG,90,111512.000,1*5E"
10273,351272315,0,0,MSG,1,0,"$PAIRMSG,91,111512.000,1,0*43"
10468,352009518,0,0,GGA,1,0,"$GNGGA,111513.000,3629.0024,N,13634.4375,E,1,19,1.67,46.2,M,34.9,M,,*4C"
10470,352010983,0,0,GLL,1,0,"$GNGLL,3629.0024,N,13634.4375,E,111513.000,A,A*4F"
10471,352012261,0,0,GSA,1,0,"$GNGSA,A,3,32,25,28,12,03,,,,,,,,1.92,1.67,0.95,1*0B"
10473,352013519,0,0,GSA,1,0,"$GNGSA,A,3,72,74,73,65,,,,,,,,,1.92,1.67,0.95,2*05"
10475,352014695,0,0,GSA,1,0,"$GNGSA,A,3,30,02,,,,,,,,,,,1.92,1.67,0.95,3*04"
10477,352015827,0,0,GSA,1,0,"$GNGSA,A,3,36,,,,,,,,,,,,1.92,1.67,0.95,4*07"
10479,352017540,0,0,GSV,1,0,"$GPGSV,2,1,08,32,85,298,26,25,61,046,31,28,54,312,30,29,32,128,,1*6D"
10480,352019211,0,0,GSV,1,0,"$GPGSV,2,2,08,31,29,287,19,12,24,045,22,10,22,205,16,03,06,326,20,1*65"
10505,352124504,0,0,GSV,1,0,"$GPGSV,1,1,04,32,85,298,19,25,61,046,34,28,54,312,18,03,06,326,23,8*6A"
10506,352126291,0,0,GSV,1,0,"$GLGSV,2,1,06,72,72,308,27,74,67,336,31,73,30,037,25,65,20,329,36,1*7D"
10507,352127364,0,0,GSV,1,0,"$GLGSV,2,2,06,83,03,071,33,82,02,023,19,1*71"
10508,352128921,0,0,GSV,1,0,"$GAGSV,1,1,04,30,65,059,31,27,57,205,,02,14,042,34,21,07,217,,7*7F"
10509,352129989,0,0,GSV,1,0,"$GAGSV,1,1,02,30,65,059,32,02,14,042,27,1*7E"
10510,352131507,0,0,GSV,1,0,"$GBGSV,3,1,09,36,73,310,27,07,59,305,,04,42,143,,03,41,220,,1*74"
10511,352132977,0,0,GSV,1,0,"$GBGSV,3,2,09,06,38,209,,12,21,164,,30,10,125,,11,02,150,,1*79"
10512,352133642,0,0,GSV,1,0,"$GBGSV,3,3,09,16,,,25,1*7F"
10513,352134443,0,0,GSV,1,0,"$GBGSV,1,1,01,36,73,310,25,4*46"
10538,352230438,0,0,RMC,1,0,"$GNRMC,111513.000,A,3629.0024,N,13634.4375,E,0.33,182.99,170726,,,A,V*0C"
10540,352231668,0,0,VTG,1,0,"$GNVTG,182.99,T,,M,0.33,N,0.61,K,A*2F"
10542,352232419,0,0,MSG,1,0,"$PAIRMSG,90,111513.000,1*5F"
10543,352233184,0,0,MSG,1,0,"$PAIRMSG,91,111513.000,1,0*42"
