sequence,rx_end_us,delta_us,fault_code,nmea_type,checksum_valid,truncated,nmea
169,320490242,0,0,GGA,1,0,"$GNGGA,110324.000,,,,,0,0,,,M,,M,,*53"
171,320491186,0,0,GLL,1,0,"$GNGLL,,,,,110324.000,V,N*61"
172,320492042,0,0,GSA,1,0,"$GNGSA,A,1,,,,,,,,,,,,,,,,1*1D"
174,320492855,0,0,GSA,1,0,"$GNGSA,A,1,,,,,,,,,,,,,,,,2*1E"
176,320493652,0,0,GSA,1,0,"$GNGSA,A,1,,,,,,,,,,,,,,,,3*1F"
178,320494467,0,0,GSA,1,0,"$GNGSA,A,1,,,,,,,,,,,,,,,,4*18"
180,320496207,0,0,GSV,1,0,"$GPGSV,2,1,07,32,80,316,28,25,66,049,37,28,52,306,34,29,28,132,,1*67"
181,320497632,0,0,GSV,1,0,"$GPGSV,2,2,07,12,28,045,38,10,27,207,19,31,26,283,16,1*51"
182,320498736,0,0,GSV,1,0,"$GPGSV,1,1,02,25,66,049,30,28,52,306,30,8*6D"
183,320499859,0,0,GSV,1,0,"$GLGSV,1,1,02,72,67,319,33,65,15,330,34,1*75"
184,320500412,0,0,GSV,1,0,"$GAGSV,1,1,00,7*73"
185,320500902,0,0,GSV,1,0,"$GAGSV,1,1,00,1*75"
186,320501393,0,0,GSV,1,0,"$GBGSV,1,1,00,1*76"
211,320602463,0,0,GSV,1,0,"$GBGSV,1,1,00,4*73"
212,320603618,0,0,RMC,1,0,"$GNRMC,110324.000,V,,,,,,,170726,,,N,V*29"
214,320604345,0,0,VTG,1,0,"$GNVTG,,T,,M,,N,,K,N*32"
216,320605086,0,0,MSG,1,0,"$PAIRMSG,90,110324.000,1*5C"
217,320605837,0,0,MSG,1,0,"$PAIRMSG,91,110324.000,1,0*41"
460,321511176,0,0,GGA,1,0,"$GNGGA,110325.000,,,,,0,0,,,M,,M,,*52"
462,321512100,0,0,GLL,1,0,"$GNGLL,,,,,110325.000,V,N*60"
463,321512917,0,0,GSA,1,0,"$GNGSA,A,1,,,,,,,,,,,,,,,,1*1D"
465,321513722,0,0,GSA,1,0,"$GNGSA,A,1,,,,,,,,,,,,,,,,2*1E"
467,321514503,0,0,GSA,1,0,"$GNGSA,A,1,,,,,,,,,,,,,,,,3*1F"
469,321515323,0,0,GSA,1,0,"$GNGSA,A,1,,,,,,,,,,,,,,,,4*18"
471,321517033,0,0,GSV,1,0,"$GPGSV,2,1,07,32,80,316,28,25,66,049,37,28,52,306,34,29,28,132,,1*67"
472,321518440,0,0,GSV,1,0,"$GPGSV,2,2,07,12,28,045,38,10,27,207,19,31,26,283,16,1*51"
473,321519537,0,0,GSV,1,0,"$GPGSV,1,1,02,25,66,049,30,28,52,306,30,8*6D"
474,321520666,0,0,GSV,1,0,"$GLGSV,1,1,02,72,67,319,33,65,15,330,34,1*75"
475,321521195,0,0,GSV,1,0,"$GAGSV,1,1,00,7*73"
476,321521686,0,0,GSV,1,0,"$GAGSV,1,1,00,1*75"
477,321522182,0,0,GSV,1,0,"$GBGSV,1,1,00,1*76"
478,321522665,0,0,GSV,1,0,"$GBGSV,1,1,00,4*73"
503,321624869,0,0,RMC,1,0,"$GNRMC,110325.000,V,,,,,,,170726,,,N,V*28"
505,321625700,0,0,VTG,1,0,"$GNVTG,,T,,M,,N,,K,N*32"
507,321626418,0,0,MSG,1,0,"$PAIRMSG,90,110325.000,1*5D"
508,321627157,0,0,MSG,1,0,"$PAIRMSG,91,110325.000,1,0*40"
744,322533436,0,0,GGA,1,0,"$GNGGA,110326.000,,,,,0,0,,,M,,M,,*51"
746,322534361,0,0,GLL,1,0,"$GNGLL,,,,,110326.000,V,N*63"
747,322535134,0,0,GSA,1,0,"$GNGSA,A,1,,,,,,,,,,,,,,,,1*1D"
749,322535978,0,0,GSA,1,0,"$GNGSA,A,1,,,,,,,,,,,,,,,,2*1E"
751,322536761,0,0,GSA,1,0,"$GNGSA,A,1,,,,,,,,,,,,,,,,3*1F"
753,322537547,0,0,GSA,1,0,"$GNGSA,A,1,,,,,,,,,,,,,,,,4*18"
755,322539213,0,0,GSV,1,0,"$GPGSV,2,1,07,32,80,316,28,25,66,049,37,28,52,306,34,29,28,132,,1*67"
756,322540664,0,0,GSV,1,0,"$GPGSV,2,2,07,12,28,045,38,10,27,207,19,31,26,283,16,1*51"
757,322541755,0,0,GSV,1,0,"$GPGSV,1,1,02,25,66,049,31,28,52,306,31,8*6D"
758,322542867,0,0,GSV,1,0,"$GLGSV,1,1,02,72,67,319,33,65,15,330,34,1*75"
759,322543393,0,0,GSV,1,0,"$GAGSV,1,1,00,7*73"
760,322543874,0,0,GSV,1,0,"$GAGSV,1,1,00,1*75"
761,322544385,0,0,GSV,1,0,"$GBGSV,1,1,00,1*76"
762,322544868,0,0,GSV,1,0,"$GBGSV,1,1,00,4*73"
787,322650539,0,0,RMC,1,0,"$GNRMC,110326.000,V,,,,,,,170726,,,N,V*2B"
789,322651450,0,0,VTG,1,0,"$GNVTG,,T,,M,,N,,K,N*32"
791,322652229,0,0,MSG,1,0,"$PAIRMSG,90,110326.000,1*5E"
792,322653000,0,0,MSG,1,0,"$PAIRMSG,91,110326.000,1,0*43"
1011,323485603,0,0,GGA,1,0,"$GNGGA,110327.000,,,,,0,0,,,M,,M,,*50"
1013,323486596,0,0,GLL,1,0,"$GNGLL,,,,,110327.000,V,N*62"
1014,323487419,0,0,GSA,1,0,"$GNGSA,A,1,,,,,,,,,,,,,,,,1*1D"
1016,323488235,0,0,GSA,1,0,"$GNGSA,A,1,,,,,,,,,,,,,,,,2*1E"
1018,323489037,0,0,GSA,1,0,"$GNGSA,A,1,,,,,,,,,,,,,,,,3*1F"
1020,323489844,0,0,GSA,1,0,"$GNGSA,A,1,,,,,,,,,,,,,,,,4*18"
1022,323491530,0,0,GSV,1,0,"$GPGSV,2,1,07,32,80,316,28,25,66,049,37,28,52,306,34,29,28,132,,1*67"
1023,323493017,0,0,GSV,1,0,"$GPGSV,2,2,07,12,28,045,38,10,27,207,19,31,26,283,15,1*52"
1024,323494163,0,0,GSV,1,0,"$GPGSV,1,1,02,25,66,049,31,28,52,306,31,8*6D"
1025,323495248,0,0,GSV,1,0,"$GLGSV,1,1,02,72,67,319,33,65,15,330,34,1*75"
1026,323495751,0,0,GSV,1,0,"$GAGSV,1,1,00,7*73"
1027,323496303,0,0,GSV,1,0,"$GAGSV,1,1,00,1*75"
1028,323496874,0,0,GSV,1,0,"$GBGSV,1,1,00,1*76"
1053,323599203,0,0,GSV,1,0,"$GBGSV,1,1,00,4*73"
1054,323600353,0,0,RMC,1,0,"$GNRMC,110327.000,V,,,,,,,170726,,,N,V*2A"
1056,323601074,0,0,VTG,1,0,"$GNVTG,,T,,M,,N,,K,N*32"
1058,323601815,0,0,MSG,1,0,"$PAIRMSG,90,110327.000,1*5F"
1059,323602680,0,0,MSG,1,0,"$PAIRMSG,91,110327.000,1,0*42"
1296,324524734,0,0,GGA,1,0,"$GNGGA,110328.000,,,,,0,0,,,M,,M,,*5F"
1298,324525680,0,0,GLL,1,0,"$GNGLL,,,,,110328.000,V,N*6D"
1299,324526501,0,0,GSA,1,0,"$GNGSA,A,1,,,,,,,,,,,,,,,,1*1D"
1301,324527354,0,0,GSA,1,0,"$GNGSA,A,1,,,,,,,,,,,,,,,,2*1E"
1303,324528147,0,0,GSA,1,0,"$GNGSA,A,1,,,,,,,,,,,,,,,,3*1F"
1305,324528980,0,0,GSA,1,0,"$GNGSA,A,1,,,,,,,,,,,,,,,,4*18"
1307,324530711,0,0,GSV,1,0,"$GPGSV,2,1,07,32,80,316,28,25,66,049,37,28,52,306,34,29,28,132,,1*67"
1308,324532135,0,0,GSV,1,0,"$GPGSV,2,2,07,12,28,045,38,10,27,207,19,31,26,283,14,1*53"
1309,324533283,0,0,GSV,1,0,"$GPGSV,1,1,02,25,66,049,31,28,52,306,30,8*6C"
1310,324534399,0,0,GSV,1,0,"$GLGSV,1,1,02,72,67,319,33,65,15,330,34,1*75"
1311,324534948,0,0,GSV,1,0,"$GAGSV,1,1,00,7*73"
1312,324535464,0,0,GSV,1,0,"$GAGSV,1,1,00,1*75"
1313,324535948,0,0,GSV,1,0,"$GBGSV,1,1,00,1*76"
1314,324536471,0,0,GSV,1,0,"$GBGSV,1,1,00,4*73"
1339,324639534,0,0,RMC,1,0,"$GNRMC,110328.000,V,,,,,,,170726,,,N,V*25"
1341,324640451,0,0,VTG,1,0,"$GNVTG,,T,,M,,N,,K,N*32"
1343,324641222,0,0,MSG,1,0,"$PAIRMSG,90,110328.000,1*50"
1344,324641994,0,0,MSG,1,0,"$PAIRMSG,91,110328.000,1,0*4D"
1563,325495099,0,0,GGA,1,0,"$GNGGA,110329.000,,,,,0,0,,,M,,M,,*5E"
1565,325496043,0,0,GLL,1,0,"$GNGLL,,,,,110329.000,V,N*6C"
1566,325496867,0,0,GSA,1,0,"$GNGSA,A,1,,,,,,,,,,,,,,,,1*1D"
1568,325497668,0,0,GSA,1,0,"$GNGSA,A,1,,,,,,,,,,,,,,,,2*1E"
1570,325498447,0,0,GSA,1,0,"$GNGSA,A,1,,,,,,,,,,,,,,,,3*1F"
1572,325499258,0,0,GSA,1,0,"$GNGSA,A,1,,,,,,,,,,,,,,,,4*18"
1574,325500975,0,0,GSV,1,0,"$GPGSV,2,1,07,32,80,316,28,25,66,049,37,28,52,306,34,29,28,132,,1*67"
1575,325502428,0,0,GSV,1,0,"$GPGSV,2,2,07,12,28,045,38,10,27,207,18,31,26,283,14,1*52"
1576,325503525,0,0,GSV,1,0,"$GPGSV,1,1,02,25,66,049,31,28,52,306,30,8*6C"
1577,325504649,0,0,GSV,1,0,"$GLGSV,1,1,02,72,67,319,33,65,15,330,34,1*75"
1578,325505233,0,0,GSV,1,0,"$GAGSV,1,1,00,7*73"
1579,325505722,0,0,GSV,1,0,"$GAGSV,1,1,00,1*75"
1580,325506218,0,0,GSV,1,0,"$GBGSV,1,1,00,1*76"
1581,325506710,0,0,GSV,1,0,"$GBGSV,1,1,00,4*73"
1606,325610017,0,0,RMC,1,0,"$GNRMC,110329.000,V,,,,,,,170726,,,N,V*24"
1608,325610846,0,0,VTG,1,0,"$GNVTG,,T,,M,,N,,K,N*32"
1610,325611632,0,0,MSG,1,0,"$PAIRMSG,90,110329.000,1*51"
1611,325612387,0,0,MSG,1,0,"$PAIRMSG,91,110329.000,1,0*4C"
1854,326529628,0,0,GGA,1,0,"$GNGGA,110330.000,,,,,0,0,,,M,,M,,*56"
1856,326530599,0,0,GLL,1,0,"$GNGLL,,,,,110330.000,V,N*64"
1857,326531420,0,0,GSA,1,0,"$GNGSA,A,1,,,,,,,,,,,,,,,,1*1D"
1859,326532288,0,0,GSA,1,0,"$GNGSA,A,1,,,,,,,,,,,,,,,,2*1E"
1861,326533068,0,0,GSA,1,0,"$GNGSA,A,1,,,,,,,,,,,,,,,,3*1F"
1863,326533871,0,0,GSA,1,0,"$GNGSA,A,1,,,,,,,,,,,,,,,,4*18"
1865,326535579,0,0,GSV,1,0,"$GPGSV,2,1,07,32,80,316,27,25,66,049,37,28,52,306,34,29,28,132,,1*68"
1866,326537006,0,0,GSV,1,0,"$GPGSV,2,2,07,12,28,045,38,10,27,207,18,31,26,283,14,1*52"
1867,326538161,0,0,GSV,1,0,"$GPGSV,1,1,02,25,66,049,31,28,52,306,31,8*6D"
1868,326539371,0,0,GSV,1,0,"$GLGSV,1,1,02,72,67,319,33,65,15,330,34,1*75"
1869,326539974,0,0,GSV,1,0,"$GAGSV,1,1,00,7*73"
1870,326540463,0,0,GSV,1,0,"$GAGSV,1,1,00,1*75"
1871,326540947,0,0,GSV,1,0,"$GBGSV,1,1,00,1*76"
1872,326541438,0,0,GSV,1,0,"$GBGSV,1,1,00,4*73"
1897,326644508,0,0,RMC,1,0,"$GNRMC,110330.000,V,,,,,,,170726,,,N,V*2C"
1899,326645378,0,0,VTG,1,0,"$GNVTG,,T,,M,,N,,K,N*32"
1901,326646149,0,0,MSG,1,0,"$PAIRMSG,90,110330.000,1*59"
1902,326646925,0,0,MSG,1,0,"$PAIRMSG,91,110330.000,1,0*44"
2121,327478517,0,0,GGA,1,0,"$GNGGA,110331.000,,,,,0,0,,,M,,M,,*57"
2123,327479427,0,0,GLL,1,0,"$GNGLL,,,,,110331.000,V,N*65"
2124,327480206,0,0,GSA,1,0,"$GNGSA,A,1,,,,,,,,,,,,,,,,1*1D"
2126,327481037,0,0,GSA,1,0,"$GNGSA,A,1,,,,,,,,,,,,,,,,2*1E"
2128,327481825,0,0,GSA,1,0,"$GNGSA,A,1,,,,,,,,,,,,,,,,3*1F"
2130,327482599,0,0,GSA,1,0,"$GNGSA,A,1,,,,,,,,,,,,,,,,4*18"
2132,327484365,0,0,GSV,1,0,"$GPGSV,2,1,07,32,80,316,27,25,66,049,37,28,52,306,34,29,28,132,,1*68"
2133,327485818,0,0,GSV,1,0,"$GPGSV,2,2,07,12,28,045,38,10,27,207,18,31,26,283,14,1*52"
2158,327580504,0,0,GSV,1,0,"$GPGSV,1,1,02,25,66,049,31,28,52,306,30,8*6C"
2159,327582039,0,0,GSV,1,0,"$GLGSV,1,1,03,74,69,321,33,72,67,319,33,65,15,330,34,1*48"
2160,327582559,0,0,GSV,1,0,"$GAGSV,1,1,00,7*73"
2161,327583100,0,0,GSV,1,0,"$GAGSV,1,1,00,1*75"
2162,327583825,0,0,GSV,1,0,"$GBGSV,1,1,00,1*76"
2163,327584542,0,0,GSV,1,0,"$GBGSV,1,1,00,4*73"
2164,327585632,0,0,RMC,1,0,"$GNRMC,110331.000,V,,,,,,,170726,,,N,V*2D"
2166,327586343,0,0,VTG,1,0,"$GNVTG,,T,,M,,N,,K,N*32"
2168,327587099,0,0,MSG,1,0,"$PAIRMSG,90,110331.000,1*58"
2169,327587839,0,0,MSG,1,0,"$PAIRMSG,91,110331.000,1,0*45"
2412,328507888,0,0,GGA,1,0,"$GNGGA,110332.000,,,,,0,0,,,M,,M,,*54"
2414,328508807,0,0,GLL,1,0,"$GNGLL,,,,,110332.000,V,N*66"
2415,328509636,0,0,GSA,1,0,"$GNGSA,A,1,,,,,,,,,,,,,,,,1*1D"
2417,328510445,0,0,GSA,1,0,"$GNGSA,A,1,,,,,,,,,,,,,,,,2*1E"
2419,328511227,0,0,GSA,1,0,"$GNGSA,A,1,,,,,,,,,,,,,,,,3*1F"
2421,328512025,0,0,GSA,1,0,"$GNGSA,A,1,,,,,,,,,,,,,,,,4*18"
2423,328513734,0,0,GSV,1,0,"$GPGSV,2,1,07,32,80,316,27,25,66,049,37,28,52,306,34,29,28,132,,1*68"
2424,328515151,0,0,GSV,1,0,"$GPGSV,2,2,07,12,28,045,38,10,27,207,17,31,26,283,14,1*5D"
2425,328516256,0,0,GSV,1,0,"$GPGSV,1,1,02,25,66,049,31,28,52,306,30,8*6C"
2426,328517723,0,0,GSV,1,0,"$GLGSV,1,1,03,74,69,321,33,72,67,319,33,65,15,330,34,1*48"
2427,328518314,0,0,GSV,1,0,"$GAGSV,1,1,00,7*73"
2428,328518798,0,0,GSV,1,0,"$GAGSV,1,1,00,1*75"
2429,328519303,0,0,GSV,1,0,"$GBGSV,1,1,00,1*76"
2430,328519836,0,0,GSV,1,0,"$GBGSV,1,1,00,4*73"
2455,328621091,0,0,RMC,1,0,"$GNRMC,110332.000,V,,,,,,,170726,,,N,V*2E"
2457,328621990,0,0,VTG,1,0,"$GNVTG,,T,,M,,N,,K,N*32"
2459,328622726,0,0,MSG,1,0,"$PAIRMSG,90,110332.000,1*5B"
2460,328623506,0,0,MSG,1,0,"$PAIRMSG,91,110332.000,1,0*46"
2703,329538653,0,0,GGA,1,0,"$GNGGA,110333.000,,,,,0,0,,,M,,M,,*55"
2705,329539652,0,0,GLL,1,0,"$GNGLL,,,,,110333.000,V,N*67"
2706,329540457,0,0,GSA,1,0,"$GNGSA,A,1,,,,,,,,,,,,,,,,1*1D"
2708,329541313,0,0,GSA,1,0,"$GNGSA,A,1,,,,,,,,,,,,,,,,2*1E"
2710,329542249,0,0,GSA,1,0,"$GNGSA,A,1,,,,,,,,,,,,,,,,3*1F"
2712,329543090,0,0,GSA,1,0,"$GNGSA,A,1,,,,,,,,,,,,,,,,4*18"
2714,329544831,0,0,GSV,1,0,"$GPGSV,2,1,07,32,80,316,27,25,66,049,38,28,52,306,34,29,28,132,,1*67"
2715,329546275,0,0,GSV,1,0,"$GPGSV,2,2,07,12,28,045,38,10,27,207,16,31,26,283,15,1*5D"
2716,329547409,0,0,GSV,1,0,"$GPGSV,1,1,02,25,66,049,30,28,52,306,30,8*6D"
2717,329549063,0,0,GSV,1,0,"$GLGSV,1,1,04,74,69,321,33,72,67,319,33,71,53,159,,65,15,330,34,1*72"
2718,329549613,0,0,GSV,1,0,"$GAGSV,1,1,00,7*73"
2719,329550102,0,0,GSV,1,0,"$GAGSV,1,1,00,1*75"
2720,329550599,0,0,GSV,1,0,"$GBGSV,1,1,00,1*76"
2745,329657929,0,0,GSV,1,0,"$GBGSV,1,1,00,4*73"
2746,329659072,0,0,RMC,1,0,"$GNRMC,110333.000,V,,,,,,,170726,,,N,V*2F"
2748,329659808,0,0,VTG,1,0,"$GNVTG,,T,,M,,N,,K,N*32"
2750,329660540,0,0,MSG,1,0,"$PAIRMSG,90,110333.000,1*5A"
2751,329661292,0,0,MSG,1,0,"$PAIRMSG,91,110333.000,1,0*47"
2985,330548591,0,0,GGA,1,0,"$GNGGA,110334.000,,,,,0,0,,,M,,M,,*52"
2987,330549617,0,0,GLL,1,0,"$GNGLL,,,,,110334.000,V,N*60"
2988,330550431,0,0,GSA,1,0,"$GNGSA,A,1,,,,,,,,,,,,,,,,1*1D"
2990,330551259,0,0,GSA,1,0,"$GNGSA,A,1,,,,,,,,,,,,,,,,2*1E"
2992,330552050,0,0,GSA,1,0,"$GNGSA,A,1,,,,,,,,,,,,,,,,3*1F"
2994,330552861,0,0,GSA,1,0,"$GNGSA,A,1,,,,,,,,,,,,,,,,4*18"
2996,330554537,0,0,GSV,1,0,"$GPGSV,2,1,07,32,80,316,27,25,66,048,38,28,52,306,34,29,28,132,,1*66"
2997,330556020,0,0,GSV,1,0,"$GPGSV,2,2,07,12,28,045,38,10,27,207,16,31,26,283,15,1*5D"
2998,330557264,0,0,GSV,1,0,"$GPGSV,1,1,02,25,66,048,29,28,52,306,29,8*6C"
2999,330559063,0,0,GSV,1,0,"$GLGSV,2,1,05,74,69,321,33,72,67,319,33,71,53,159,,73,34,034,38,1*7F"
3000,330559985,0,0,GSV,1,0,"$GLGSV,2,2,05,65,15,330,35,1*4C"
3001,330560606,0,0,GSV,1,0,"$GAGSV,1,1,00,7*73"
3026,330663187,0,0,GSV,1,0,"$GAGSV,1,1,00,1*75"
3027,330663793,0,0,GSV,1,0,"$GBGSV,1,1,00,1*76"
3028,330664310,0,0,GSV,1,0,"$GBGSV,1,1,00,4*73"
3029,330665334,0,0,RMC,1,0,"$GNRMC,110334.000,V,,,,,,,170726,,,N,V*28"
3031,330666040,0,0,VTG,1,0,"$GNVTG,,T,,M,,N,,K,N*32"
3033,330666792,0,0,MSG,1,0,"$PAIRMSG,90,110334.000,1*5D"
3034,330667556,0,0,MSG,1,0,"$PAIRMSG,91,110334.000,1,0*40"
3253,331503676,0,0,GGA,1,0,"$GNGGA,110335.000,,,,,0,0,,,M,,M,,*53"
3255,331504686,0,0,GLL,1,0,"$GNGLL,,,,,110335.000,V,N*61"
3256,331505502,0,0,GSA,1,0,"$GNGSA,A,1,,,,,,,,,,,,,,,,1*1D"
3258,331506345,0,0,GSA,1,0,"$GNGSA,A,1,,,,,,,,,,,,,,,,2*1E"
3260,331507135,0,0,GSA,1,0,"$GNGSA,A,1,,,,,,,,,,,,,,,,3*1F"
3262,331507923,0,0,GSA,1,0,"$GNGSA,A,1,,,,,,,,,,,,,,,,4*18"
3264,331509632,0,0,GSV,1,0,"$GPGSV,2,1,07,32,80,316,27,25,66,048,38,28,52,306,34,29,28,132,,1*66"
3265,331511060,0,0,GSV,1,0,"$GPGSV,2,2,07,12,28,045,38,10,27,207,16,31,26,283,15,1*5D"
3266,331512202,0,0,GSV,1,0,"$GPGSV,1,1,02,25,66,048,30,28,52,306,30,8*6C"
3267,331513859,0,0,GSV,1,0,"$GLGSV,2,1,05,74,69,321,33,72,67,319,33,71,53,159,,73,34,034,38,1*7F"
3268,331514704,0,0,GSV,1,0,"$GLGSV,2,2,05,65,15,330,35,1*4C"
3269,331515202,0,0,GSV,1,0,"$GAGSV,1,1,00,7*73"
3294,331619225,0,0,GSV,1,0,"$GAGSV,1,1,00,1*75"
3295,331619839,0,0,GSV,1,0,"$GBGSV,1,1,00,1*76"
3296,331620352,0,0,GSV,1,0,"$GBGSV,1,1,00,4*73"
3297,331621376,0,0,RMC,1,0,"$GNRMC,110335.000,V,,,,,,,170726,,,N,V*29"
3299,331622098,0,0,VTG,1,0,"$GNVTG,,T,,M,,N,,K,N*32"
3301,331622836,0,0,MSG,1,0,"$PAIRMSG,90,110335.000,1*5C"
3302,331623577,0,0,MSG,1,0,"$PAIRMSG,91,110335.000,1,0*41"
3545,332547168,0,0,GGA,1,0,"$GNGGA,110336.000,,,,,0,0,,,M,,M,,*50"
3547,332548100,0,0,GLL,1,0,"$GNGLL,,,,,110336.000,V,N*62"
3548,332548927,0,0,GSA,1,0,"$GNGSA,A,1,,,,,,,,,,,,,,,,1*1D"
3550,332549729,0,0,GSA,1,0,"$GNGSA,A,1,,,,,,,,,,,,,,,,2*1E"
3552,332550531,0,0,GSA,1,0,"$GNGSA,A,1,,,,,,,,,,,,,,,,3*1F"
3554,332551356,0,0,GSA,1,0,"$GNGSA,A,1,,,,,,,,,,,,,,,,4*18"
3556,332553077,0,0,GSV,1,0,"$GPGSV,2,1,07,32,80,316,26,25,66,048,39,28,52,306,34,29,28,132,,1*66"
3557,332554485,0,0,GSV,1,0,"$GPGSV,2,2,07,12,28,045,39,10,27,207,16,31,26,283,15,1*5C"
3558,332555565,0,0,GSV,1,0,"$GPGSV,1,1,02,25,66,048,30,28,52,306,31,8*6D"
3559,332557297,0,0,GSV,1,0,"$GLGSV,1,1,04,74,69,321,33,72,67,319,33,73,34,034,39,65,15,330,35,1*70"
3560,332557831,0,0,GSV,1,0,"$GAGSV,1,1,00,7*73"
3561,332558332,0,0,GSV,1,0,"$GAGSV,1,1,00,1*75"
3562,332558814,0,0,GSV,1,0,"$GBGSV,1,1,00,1*76"
3587,332661848,0,0,GSV,1,0,"$GBGSV,1,1,00,4*73"
3588,332663024,0,0,RMC,1,0,"$GNRMC,110336.000,V,,,,,,,170726,,,N,V*2A"
3590,332663727,0,0,VTG,1,0,"$GNVTG,,T,,M,,N,,K,N*32"
3592,332664438,0,0,MSG,1,0,"$PAIRMSG,90,110336.000,1*5F"
3593,332665214,0,0,MSG,1,0,"$PAIRMSG,91,110336.000,1,0*42"
3812,333510762,0,0,GGA,1,0,"$GNGGA,110337.000,,,,,0,0,,,M,,M,,*51"
3814,333511776,0,0,GLL,1,0,"$GNGLL,,,,,110337.000,V,N*63"
3815,333512641,0,0,GSA,1,0,"$GNGSA,A,1,,,,,,,,,,,,,,,,1*1D"
3817,333513447,0,0,GSA,1,0,"$GNGSA,A,1,,,,,,,,,,,,,,,,2*1E"
3819,333514223,0,0,GSA,1,0,"$GNGSA,A,1,,,,,,,,,,,,,,,,3*1F"
3821,333515028,0,0,GSA,1,0,"$GNGSA,A,1,,,,,,,,,,,,,,,,4*18"
3823,333516756,0,0,GSV,1,0,"$GPGSV,2,1,07,32,80,316,26,25,66,048,39,28,52,307,35,29,28,132,,1*66"
3824,333518164,0,0,GSV,1,0,"$GPGSV,2,2,07,12,28,045,39,10,27,207,16,31,26,283,15,1*5C"
3825,333519255,0,0,GSV,1,0,"$GPGSV,1,1,02,25,66,048,30,28,52,307,31,8*6C"
3826,333520949,0,0,GSV,1,0,"$GLGSV,1,1,04,74,69,321,33,72,67,319,33,73,34,034,37,65,15,330,35,1*7E"
3827,333521492,0,0,GSV,1,0,"$GAGSV,1,1,00,7*73"
3828,333521978,0,0,GSV,1,0,"$GAGSV,1,1,00,1*75"
3829,333522466,0,0,GSV,1,0,"$GBGSV,1,1,00,1*76"
3854,333620400,0,0,GSV,1,0,"$GBGSV,1,1,00,4*73"
3855,333621547,0,0,RMC,1,0,"$GNRMC,110337.000,V,,,,,,,170726,,,N,V*2B"
3857,333622274,0,0,VTG,1,0,"$GNVTG,,T,,M,,N,,K,N*32"
3859,333623034,0,0,MSG,1,0,"$PAIRMSG,90,110337.000,1*5E"
3860,333623965,0,0,MSG,1,0,"$PAIRMSG,91,110337.000,1,0*43"
4103,334531817,0,0,GGA,1,0,"$GNGGA,110338.000,,,,,0,0,,,M,,M,,*5E"
4105,334532751,0,0,GLL,1,0,"$GNGLL,,,,,110338.000,V,N*6C"
4106,334533522,0,0,GSA,1,0,"$GNGSA,A,1,,,,,,,,,,,,,,,,1*1D"
4108,334534316,0,0,GSA,1,0,"$GNGSA,A,1,,,,,,,,,,,,,,,,2*1E"
4110,334535111,0,0,GSA,1,0,"$GNGSA,A,1,,,,,,,,,,,,,,,,3*1F"
4112,334535969,0,0,GSA,1,0,"$GNGSA,A,1,,,,,,,,,,,,,,,,4*18"
4114,334537627,0,0,GSV,1,0,"$GPGSV,2,1,07,32,80,316,26,25,66,048,39,28,52,307,35,29,29,132,,1*67"
4115,334539031,0,0,GSV,1,0,"$GPGSV,2,2,07,12,28,045,39,10,27,207,16,31,26,283,15,1*5C"
4116,334540146,0,0,GSV,1,0,"$GPGSV,1,1,02,25,66,048,30,28,52,307,31,8*6C"
4117,334541876,0,0,GSV,1,0,"$GLGSV,1,1,04,74,69,321,33,72,67,319,32,73,34,034,37,65,15,330,35,1*7F"
4118,334542384,0,0,GSV,1,0,"$GAGSV,1,1,00,7*73"
4119,334542870,0,0,GSV,1,0,"$GAGSV,1,1,00,1*75"
4120,334543359,0,0,GSV,1,0,"$GBGSV,1,1,00,1*76"
4145,334641621,0,0,GSV,1,0,"$GBGSV,1,1,00,4*73"
4146,334642779,0,0,RMC,1,0,"$GNRMC,110338.000,V,,,,,,,170726,,,N,V*24"
4148,334643524,0,0,VTG,1,0,"$GNVTG,,T,,M,,N,,K,N*32"
4150,334644282,0,0,MSG,1,0,"$PAIRMSG,90,110338.000,1*51"
4151,334645055,0,0,MSG,1,0,"$PAIRMSG,91,110338.000,1,0*4C"
4365,335476516,0,0,GGA,1,0,"$GNGGA,110339.000,,,,,0,0,,,M,,M,,*5F"
4367,335477437,0,0,GLL,1,0,"$GNGLL,,,,,110339.000,V,N*6D"
4368,335478260,0,0,GSA,1,0,"$GNGSA,A,1,,,,,,,,,,,,,,,,1*1D"
4370,335479103,0,0,GSA,1,0,"$GNGSA,A,1,,,,,,,,,,,,,,,,2*1E"
4372,335479962,0,0,GSA,1,0,"$GNGSA,A,1,,,,,,,,,,,,,,,,3*1F"
4374,335480768,0,0,GSA,1,0,"$GNGSA,A,1,,,,,,,,,,,,,,,,4*18"
4400,335576914,0,0,GSV,1,0,"$GPGSV,2,1,07,32,80,316,26,25,66,048,39,28,52,307,35,29,29,132,,1*67"
4401,335578460,0,0,GSV,1,0,"$GPGSV,2,2,07,12,28,045,38,10,27,207,15,31,26,283,16,1*5D"
4402,335579542,0,0,GSV,1,0,"$GPGSV,1,1,02,25,66,048,31,28,52,307,31,8*6D"
4403,335581207,0,0,GSV,1,0,"$GLGSV,1,1,04,74,69,321,33,72,67,319,32,73,34,034,37,65,15,330,35,1*7F"
4404,335581736,0,0,GSV,1,0,"$GAGSV,1,1,00,7*73"
4405,335582248,0,0,GSV,1,0,"$GAGSV,1,1,00,1*75"
4406,335582760,0,0,GSV,1,0,"$GBGSV,1,1,00,1*76"
4407,335583363,0,0,GSV,1,0,"$GBGSV,1,1,00,4*73"
4408,335584395,0,0,RMC,1,0,"$GNRMC,110339.000,V,,,,,,,170726,,,N,V*25"
4410,335585176,0,0,VTG,1,0,"$GNVTG,,T,,M,,N,,K,N*32"
4412,335586046,0,0,MSG,1,0,"$PAIRMSG,90,110339.000,1*50"
4413,335586941,0,0,MSG,1,0,"$PAIRMSG,91,110339.000,1,0*4D"
4656,336501148,0,0,GGA,1,0,"$GNGGA,110340.000,,,,,0,0,,,M,,M,,*51"
4658,336502069,0,0,GLL,1,0,"$GNGLL,,,,,110340.000,V,N*63"
4659,336502845,0,0,GSA,1,0,"$GNGSA,A,1,,,,,,,,,,,,,,,,1*1D"
4661,336503649,0,0,GSA,1,0,"$GNGSA,A,1,,,,,,,,,,,,,,,,2*1E"
4663,336504529,0,0,GSA,1,0,"$GNGSA,A,1,,,,,,,,,,,,,,,,3*1F"
4665,336505421,0,0,GSA,1,0,"$GNGSA,A,1,,,,,,,,,,,,,,,,4*18"
4667,336507087,0,0,GSV,1,0,"$GPGSV,2,1,07,32,80,316,26,25,66,048,39,28,52,307,35,29,29,132,,1*67"
4668,336508539,0,0,GSV,1,0,"$GPGSV,2,2,07,12,28,045,38,10,27,207,15,31,27,284,16,1*5B"
4669,336509670,0,0,GSV,1,0,"$GPGSV,1,1,02,25,66,048,31,28,52,307,31,8*6D"
4670,336511479,0,0,GSV,1,0,"$GLGSV,1,1,04,74,69,321,33,72,67,319,32,73,34,034,37,65,15,330,35,1*7F"
4671,336511998,0,0,GSV,1,0,"$GAGSV,1,1,00,7*73"
4672,336512487,0,0,GSV,1,0,"$GAGSV,1,1,00,1*75"
4673,336512969,0,0,GSV,1,0,"$GBGSV,1,1,00,1*76"
4698,336609193,0,0,GSV,1,0,"$GBGSV,1,1,00,4*73"
4699,336610338,0,0,RMC,1,0,"$GNRMC,110340.000,V,,,,,,,170726,,,N,V*2B"
4701,336611063,0,0,VTG,1,0,"$GNVTG,,T,,M,,N,,K,N*32"
4703,336611810,0,0,MSG,1,0,"$PAIRMSG,90,110340.000,1*5E"
4704,336612570,0,0,MSG,1,0,"$PAIRMSG,91,110340.000,1,0*43"
4947,337531844,0,0,GGA,1,0,"$GNGGA,110341.000,,,,,0,0,,,M,,M,,*50"
4949,337532804,0,0,GLL,1,0,"$GNGLL,,,,,110341.000,V,N*62"
4950,337533639,0,0,GSA,1,0,"$GNGSA,A,1,,,,,,,,,,,,,,,,1*1D"
4952,337534431,0,0,GSA,1,0,"$GNGSA,A,1,,,,,,,,,,,,,,,,2*1E"
4954,337535217,0,0,GSA,1,0,"$GNGSA,A,1,,,,,,,,,,,,,,,,3*1F"
4956,337536031,0,0,GSA,1,0,"$GNGSA,A,1,,,,,,,,,,,,,,,,4*18"
4958,337537759,0,0,GSV,1,0,"$GPGSV,2,1,07,32,80,316,25,25,66,048,39,28,52,307,35,29,29,132,,1*64"
4959,337539155,0,0,GSV,1,0,"$GPGSV,2,2,07,12,28,045,39,10,27,207,15,31,27,284,16,1*5A"
4960,337540269,0,0,GSV,1,0,"$GPGSV,1,1,02,25,66,048,31,28,52,307,32,8*6E"
4961,337541972,0,0,GSV,1,0,"$GLGSV,1,1,04,74,69,321,33,72,67,319,32,73,34,034,37,65,15,330,35,1*7F"
4962,337542506,0,0,GSV,1,0,"$GAGSV,1,1,00,7*73"
4963,337542992,0,0,GSV,1,0,"$GAGSV,1,1,00,1*75"
4964,337543494,0,0,GSV,1,0,"$GBGSV,1,1,00,1*76"
4989,337645771,0,0,GSV,1,0,"$GBGSV,1,1,00,4*73"
4990,337646917,0,0,RMC,1,0,"$GNRMC,110341.000,V,,,,,,,170726,,,N,V*2A"
4992,337647617,0,0,VTG,1,0,"$GNVTG,,T,,M,,N,,K,N*32"
4994,337648343,0,0,MSG,1,0,"$PAIRMSG,90,110341.000,1*5F"
4995,337649139,0,0,MSG,1,0,"$PAIRMSG,91,110341.000,2,0*41"
5212,338484335,0,0,GGA,1,0,"$GNGGA,110342.000,,,,,0,0,,,M,,M,,*53"
5214,338485255,0,0,GLL,1,0,"$GNGLL,,,,,110342.000,V,N*61"
5215,338486017,0,0,GSA,1,0,"$GNGSA,A,1,,,,,,,,,,,,,,,,1*1D"
5217,338486801,0,0,GSA,1,0,"$GNGSA,A,1,,,,,,,,,,,,,,,,2*1E"
5219,338487582,0,0,GSA,1,0,"$GNGSA,A,1,,,,,,,,,,,,,,,,3*1F"
5221,338488360,0,0,GSA,1,0,"$GNGSA,A,1,,,,,,,,,,,,,,,,4*18"
5223,338490044,0,0,GSV,1,0,"$GPGSV,2,1,07,32,80,316,26,25,66,048,37,28,52,307,26,29,29,132,,1*6B"
5224,338491483,0,0,GSV,1,0,"$GPGSV,2,2,07,12,28,045,37,10,27,207,15,31,27,284,16,1*54"
5251,338588418,0,0,GSV,1,0,"$GPGSV,1,1,02,25,66,048,29,28,52,307,20,8*64"
5252,338590237,0,0,GSV,1,0,"$GLGSV,1,1,04,74,69,321,23,72,67,319,25,73,34,034,35,65,15,330,33,1*7C"
5253,338590748,0,0,GSV,1,0,"$GAGSV,1,1,00,7*73"
5254,338591267,0,0,GSV,1,0,"$GAGSV,1,1,00,1*75"
5255,338591747,0,0,GSV,1,0,"$GBGSV,1,1,00,1*76"
5256,338592259,0,0,GSV,1,0,"$GBGSV,1,1,00,4*73"
5257,338593293,0,0,RMC,1,0,"$GNRMC,110342.000,V,,,,,,,170726,,,N,V*29"
5259,338594016,0,0,VTG,1,0,"$GNVTG,,T,,M,,N,,K,N*32"
5261,338594769,0,0,MSG,1,0,"$PAIRMSG,90,110342.000,1*5C"
5262,338595532,0,0,MSG,1,0,"$PAIRMSG,91,110342.000,2,0*42"
5503,339530700,0,0,GGA,1,0,"$GNGGA,110343.000,,,,,0,0,,,M,,M,,*52"
5505,339531748,0,0,GLL,1,0,"$GNGLL,,,,,110343.000,V,N*60"
5506,339532585,0,0,GSA,1,0,"$GNGSA,A,1,,,,,,,,,,,,,,,,1*1D"
5508,339533401,0,0,GSA,1,0,"$GNGSA,A,1,,,,,,,,,,,,,,,,2*1E"
5510,339534188,0,0,GSA,1,0,"$GNGSA,A,1,,,,,,,,,,,,,,,,3*1F"
5512,339535001,0,0,GSA,1,0,"$GNGSA,A,1,,,,,,,,,,,,,,,,4*18"
5514,339536719,0,0,GSV,1,0,"$GPGSV,2,1,07,32,80,316,27,25,66,048,37,28,52,307,33,29,29,132,,1*6E"
5515,339538123,0,0,GSV,1,0,"$GPGSV,2,2,07,12,28,045,37,10,27,207,15,31,27,284,17,1*55"
5516,339539233,0,0,GSV,1,0,"$GPGSV,1,1,02,25,66,048,38,28,52,307,21,8*65"
5517,339540936,0,0,GSV,1,0,"$GLGSV,1,1,04,74,69,321,33,72,67,319,26,73,34,034,33,65,15,330,35,1*7E"
5518,339541481,0,0,GSV,1,0,"$GAGSV,1,1,00,7*73"
5519,339541971,0,0,GSV,1,0,"$GAGSV,1,1,00,1*75"
5520,339542470,0,0,GSV,1,0,"$GBGSV,1,1,00,1*76"
5547,339643498,0,0,GSV,1,0,"$GBGSV,1,1,00,4*73"
5548,339644662,0,0,RMC,1,0,"$GNRMC,110343.000,V,,,,,,,170726,,,N,V*28"
5550,339645381,0,0,VTG,1,0,"$GNVTG,,T,,M,,N,,K,N*32"
5552,339646127,0,0,MSG,1,0,"$PAIRMSG,90,110343.000,1*5D"
5553,339646898,0,0,MSG,1,0,"$PAIRMSG,91,110343.000,2,0*43"
5794,340559541,0,0,GGA,1,0,"$GNGGA,110344.000,,,,,0,0,,,M,,M,,*55"
5796,340560453,0,0,GLL,1,0,"$GNGLL,,,,,110344.000,V,N*67"
5797,340561235,0,0,GSA,1,0,"$GNGSA,A,1,,,,,,,,,,,,,,,,1*1D"
5799,340562075,0,0,GSA,1,0,"$GNGSA,A,1,,,,,,,,,,,,,,,,2*1E"
5801,340562863,0,0,GSA,1,0,"$GNGSA,A,1,,,,,,,,,,,,,,,,3*1F"
5803,340563648,0,0,GSA,1,0,"$GNGSA,A,1,,,,,,,,,,,,,,,,4*18"
5805,340565329,0,0,GSV,1,0,"$GPGSV,2,1,08,32,80,316,28,25,66,048,37,28,52,307,34,29,29,132,,1*69"
5806,340567027,0,0,GSV,1,0,"$GPGSV,2,2,08,12,28,045,37,10,27,207,14,31,27,284,18,03,04,329,,1*6B"
5807,340568133,0,0,GSV,1,0,"$GPGSV,1,1,02,25,66,048,38,28,52,307,23,8*67"
5808,340569865,0,0,GSV,1,0,"$GLGSV,1,1,04,74,69,321,34,72,67,319,27,73,34,034,33,65,15,330,35,1*78"
5809,340570406,0,0,GSV,1,0,"$GAGSV,1,1,00,7*73"
5810,340570884,0,0,GSV,1,0,"$GAGSV,1,1,00,1*75"
5837,340674831,0,0,GSV,1,0,"$GBGSV,1,1,00,1*76"
5838,340675436,0,0,GSV,1,0,"$GBGSV,1,1,00,4*73"
5839,340676457,0,0,RMC,1,0,"$GNRMC,110344.000,V,,,,,,,170726,,,N,V*2F"
5841,340677184,0,0,VTG,1,0,"$GNVTG,,T,,M,,N,,K,N*32"
5843,340677925,0,0,MSG,1,0,"$PAIRMSG,90,110344.000,1*5A"
5844,340678697,0,0,MSG,1,0,"$PAIRMSG,91,110344.000,2,0*44"
6061,341508690,0,0,GGA,1,0,"$GNGGA,110345.000,,,,,0,0,,,M,,M,,*54"
6063,341509709,0,0,GLL,1,0,"$GNGLL,,,,,110345.000,V,N*66"
6064,341510480,0,0,GSA,1,0,"$GNGSA,A,1,,,,,,,,,,,,,,,,1*1D"
6066,341511265,0,0,GSA,1,0,"$GNGSA,A,1,,,,,,,,,,,,,,,,2*1E"
6068,341512147,0,0,GSA,1,0,"$GNGSA,A,1,,,,,,,,,,,,,,,,3*1F"
6070,341512992,0,0,GSA,1,0,"$GNGSA,A,1,,,,,,,,,,,,,,,,4*18"
6072,341514655,0,0,GSV,1,0,"$GPGSV,2,1,08,32,80,316,29,25,66,048,37,28,52,307,35,29,29,132,,1*69"
6073,341516337,0,0,GSV,1,0,"$GPGSV,2,2,08,12,28,045,37,10,27,207,13,31,27,284,18,03,04,329,,1*6C"
6074,341517798,0,0,GSV,1,0,"$GPGSV,1,1,03,32,80,316,22,25,66,048,38,28,52,307,25,8*5D"
6075,341519543,0,0,GSV,1,0,"$GLGSV,1,1,04,74,69,321,35,72,67,319,29,73,34,034,34,65,15,330,36,1*73"
6076,341520078,0,0,GSV,1,0,"$GAGSV,1,1,00,7*73"
6077,341520566,0,0,GSV,1,0,"$GAGSV,1,1,00,1*75"
6102,341625601,0,0,GSV,1,0,"$GBGSV,1,1,00,1*76"
6103,341626321,0,0,GSV,1,0,"$GBGSV,1,1,00,4*73"
6104,341627388,0,0,RMC,1,0,"$GNRMC,110345.000,V,,,,,,,170726,,,N,V*2E"
6106,341628116,0,0,VTG,1,0,"$GNVTG,,T,,M,,N,,K,N*32"
6108,341628873,0,0,MSG,1,0,"$PAIRMSG,90,110345.000,1*5B"
6109,341629640,0,0,MSG,1,0,"$PAIRMSG,91,110345.000,2,0*45"
6352,342547031,0,0,GGA,1,0,"$GNGGA,110346.000,,,,,0,0,,,M,,M,,*57"
6354,342548035,0,0,GLL,1,0,"$GNGLL,,,,,110346.000,V,N*65"
6355,342548844,0,0,GSA,1,0,"$GNGSA,A,1,,,,,,,,,,,,,,,,1*1D"
6357,342549710,0,0,GSA,1,0,"$GNGSA,A,1,,,,,,,,,,,,,,,,2*1E"
6359,342550529,0,0,GSA,1,0,"$GNGSA,A,1,,,,,,,,,,,,,,,,3*1F"
6361,342551377,0,0,GSA,1,0,"$GNGSA,A,1,,,,,,,,,,,,,,,,4*18"
6363,342553035,0,0,GSV,1,0,"$GPGSV,2,1,08,32,80,316,29,25,66,048,36,28,52,307,35,29,29,132,,1*68"
6364,342554741,0,0,GSV,1,0,"$GPGSV,2,2,08,12,28,045,37,10,27,207,13,31,27,284,18,03,04,329,22,1*6C"
6365,342556178,0,0,GSV,1,0,"$GPGSV,1,1,03,32,80,316,20,25,66,048,38,28,52,307,25,8*5F"
6366,342557904,0,0,GSV,1,0,"$GLGSV,1,1,04,74,69,321,35,72,67,319,30,73,34,034,35,65,15,330,36,1*7A"
6367,342558414,0,0,GSV,1,0,"$GAGSV,1,1,00,7*73"
6368,342558899,0,0,GSV,1,0,"$GAGSV,1,1,00,1*75"
6393,342654033,0,0,GSV,1,0,"$GBGSV,1,1,00,1*76"
6394,342654639,0,0,GSV,1,0,"$GBGSV,1,1,00,4*73"
6395,342655667,0,0,RMC,1,0,"$GNRMC,110346.000,V,,,,,,,170726,,,N,V*2D"
6397,342656386,0,0,VTG,1,0,"$GNVTG,,T,,M,,N,,K,N*32"
6399,342657133,0,0,MSG,1,0,"$PAIRMSG,90,110346.000,1*58"
6400,342657894,0,0,MSG,1,0,"$PAIRMSG,91,110346.000,2,0*46"
6619,343487703,0,0,GGA,1,0,"$GNGGA,110347.000,,,,,0,0,,,M,,M,,*56"
6621,343488678,0,0,GLL,1,0,"$GNGLL,,,,,110347.000,V,N*64"
6622,343489541,0,0,GSA,1,0,"$GNGSA,A,1,,,,,,,,,,,,,,,,1*1D"
6624,343490398,0,0,GSA,1,0,"$GNGSA,A,1,,,,,,,,,,,,,,,,2*1E"
6626,343491194,0,0,GSA,1,0,"$GNGSA,A,1,,,,,,,,,,,,,,,,3*1F"
6628,343491988,0,0,GSA,1,0,"$GNGSA,A,1,,,,,,,,,,,,,,,,4*18"
6630,343493734,0,0,GSV,1,0,"$GPGSV,2,1,08,32,80,316,29,25,66,048,36,28,52,307,36,29,29,132,,1*6B"
6631,343495401,0,0,GSV,1,0,"$GPGSV,2,2,08,12,28,045,37,10,27,207,,31,27,284,19,03,04,329,25,1*68"
6656,343594343,0,0,GSV,1,0,"$GPGSV,1,1,03,32,80,316,19,25,66,048,37,28,52,307,25,8*5A"
6657,343596180,0,0,GSV,1,0,"$GLGSV,1,1,04,74,69,321,35,72,67,319,30,73,34,034,36,65,15,330,36,1*79"
6658,343596704,0,0,GSV,1,0,"$GAGSV,1,1,00,7*73"
6659,343597210,0,0,GSV,1,0,"$GAGSV,1,1,00,1*75"
6660,343597698,0,0,GSV,1,0,"$GBGSV,1,1,00,1*76"
6661,343598202,0,0,GSV,1,0,"$GBGSV,1,1,00,4*73"
6662,343599240,0,0,RMC,1,0,"$GNRMC,110347.000,V,,,,,,,170726,,,N,V*2C"
6664,343599953,0,0,VTG,1,0,"$GNVTG,,T,,M,,N,,K,N*32"
6666,343600703,0,0,MSG,1,0,"$PAIRMSG,90,110347.000,1*59"
6667,343601460,0,0,MSG,1,0,"$PAIRMSG,91,110347.000,1,0*44"
6910,344524642,0,0,GGA,1,0,"$GNGGA,110348.000,,,,,0,0,,,M,,M,,*59"
6912,344525603,0,0,GLL,1,0,"$GNGLL,,,,,110348.000,V,N*6B"
6913,344526401,0,0,GSA,1,0,"$GNGSA,A,1,,,,,,,,,,,,,,,,1*1D"
6915,344527235,0,0,GSA,1,0,"$GNGSA,A,1,,,,,,,,,,,,,,,,2*1E"
6917,344528016,0,0,GSA,1,0,"$GNGSA,A,1,,,,,,,,,,,,,,,,3*1F"
6919,344528815,0,0,GSA,1,0,"$GNGSA,A,1,,,,,,,,,,,,,,,,4*18"
6921,344530501,0,0,GSV,1,0,"$GPGSV,2,1,08,32,80,316,29,25,66,048,36,28,52,307,36,29,29,132,,1*6B"
6922,344532210,0,0,GSV,1,0,"$GPGSV,2,2,08,12,28,045,37,10,27,207,,31,27,284,19,03,04,329,23,1*6E"
6923,344533637,0,0,GSV,1,0,"$GPGSV,1,1,03,32,80,316,20,25,66,048,37,28,52,307,25,8*50"
6924,344535354,0,0,GSV,1,0,"$GLGSV,1,1,04,74,69,321,35,72,67,319,31,73,34,034,36,65,15,330,36,1*78"
6925,344535892,0,0,GSV,1,0,"$GAGSV,1,1,00,7*73"
6926,344536399,0,0,GSV,1,0,"$GAGSV,1,1,00,1*75"
6951,344636395,0,0,GSV,1,0,"$GBGSV,1,1,00,1*76"
6952,344637020,0,0,GSV,1,0,"$GBGSV,1,1,00,4*73"
6953,344638053,0,0,RMC,1,0,"$GNRMC,110348.000,V,,,,,,,170726,,,N,V*23"
6955,344638789,0,0,VTG,1,0,"$GNVTG,,T,,M,,N,,K,N*32"
6957,344639543,0,0,MSG,1,0,"$PAIRMSG,90,110348.000,1*56"
6958,344640296,0,0,MSG,1,0,"$PAIRMSG,91,110348.000,1,0*4B"
7188,345528686,0,0,GGA,1,0,"$GNGGA,110349.000,,,,,0,0,,,M,,M,,*58"
7190,345529700,0,0,GLL,1,0,"$GNGLL,,,,,110349.000,V,N*6A"
7191,345530474,0,0,GSA,1,0,"$GNGSA,A,1,,,,,,,,,,,,,,,,1*1D"
7193,345531287,0,0,GSA,1,0,"$GNGSA,A,1,,,,,,,,,,,,,,,,2*1E"
7195,345532157,0,0,GSA,1,0,"$GNGSA,A,1,,,,,,,,,,,,,,,,3*1F"
7197,345532984,0,0,GSA,1,0,"$GNGSA,A,1,,,,,,,,,,,,,,,,4*18"
7199,345534834,0,0,GSV,1,0,"$GPGSV,3,1,09,32,80,316,29,25,66,048,35,28,52,307,36,29,29,132,,1*68"
7200,345536700,0,0,GSV,1,0,"$GPGSV,3,2,09,12,28,045,36,10,27,207,,31,27,284,19,39,06,260,,1*69"
7201,345537541,0,0,GSV,1,0,"$GPGSV,3,3,09,03,04,329,24,1*54"
7202,345538969,0,0,GSV,1,0,"$GPGSV,1,1,03,32,80,316,20,25,66,048,37,28,52,307,26,8*53"
7203,345540718,0,0,GSV,1,0,"$GLGSV,1,1,04,74,69,321,35,72,67,319,31,73,34,034,36,65,15,330,36,1*78"
7228,345646734,0,0,GSV,1,0,"$GAGSV,1,1,00,7*73"
7229,345647432,0,0,GSV,1,0,"$GAGSV,1,1,00,1*75"
7230,345647948,0,0,GSV,1,0,"$GBGSV,1,1,00,1*76"
7231,345648578,0,0,GSV,1,0,"$GBGSV,1,1,00,4*73"
7232,345649685,0,0,RMC,1,0,"$GNRMC,110349.000,V,,,,,,,170726,,,N,V*22"
7234,345650517,0,0,VTG,1,0,"$GNVTG,,T,,M,,N,,K,N*32"
7236,345651382,0,0,MSG,1,0,"$PAIRMSG,90,110349.000,1*57"
7237,345652246,0,0,MSG,1,0,"$PAIRMSG,91,110349.000,1,0*4A"
7456,346494283,0,0,GGA,1,0,"$GNGGA,110350.000,,,,,0,0,,,M,,M,,*50"
7458,346495220,0,0,GLL,1,0,"$GNGLL,,,,,110350.000,V,N*62"
7459,346496008,0,0,GSA,1,0,"$GNGSA,A,1,,,,,,,,,,,,,,,,1*1D"
7461,346496819,0,0,GSA,1,0,"$GNGSA,A,1,,,,,,,,,,,,,,,,2*1E"
7463,346497634,0,0,GSA,1,0,"$GNGSA,A,1,,,,,,,,,,,,,,,,3*1F"
7465,346498547,0,0,GSA,1,0,"$GNGSA,A,1,,,,,,,,,,,,,,,,4*18"
7467,346500280,0,0,GSV,1,0,"$GPGSV,3,1,09,32,80,316,29,25,66,048,35,28,52,307,36,29,29,132,,1*68"
7468,346501897,0,0,GSV,1,0,"$GPGSV,3,2,09,12,28,045,36,10,27,207,,31,27,284,18,39,06,260,,1*68"
7469,346502735,0,0,GSV,1,0,"$GPGSV,3,3,09,03,04,329,20,1*50"
7470,346504151,0,0,GSV,1,0,"$GPGSV,1,1,03,32,80,316,20,25,66,048,37,28,52,307,26,8*53"
7495,346599853,0,0,GSV,1,0,"$GLGSV,1,1,04,74,69,321,35,72,67,319,31,73,34,034,36,65,15,330,37,1*79"
7496,346600482,0,0,GSV,1,0,"$GAGSV,1,1,00,7*73"
7497,346600965,0,0,GSV,1,0,"$GAGSV,1,1,00,1*75"
7498,346601454,0,0,GSV,1,0,"$GBGSV,1,1,00,1*76"
7499,346601944,0,0,GSV,1,0,"$GBGSV,1,1,00,4*73"
7500,346602963,0,0,RMC,1,0,"$GNRMC,110350.000,V,,,,,,,170726,,,N,V*2A"
7502,346603707,0,0,VTG,1,0,"$GNVTG,,T,,M,,N,,K,N*32"
7504,346604437,0,0,MSG,1,0,"$PAIRMSG,90,110350.000,1*5F"
7505,346605189,0,0,MSG,1,0,"$PAIRMSG,91,110350.000,1,0*42"
7748,347499042,0,0,GGA,1,0,"$GNGGA,110351.000,,,,,0,0,,,M,,M,,*51"
7750,347499972,0,0,GLL,1,0,"$GNGLL,,,,,110351.000,V,N*63"
7751,347500801,0,0,GSA,1,0,"$GNGSA,A,1,,,,,,,,,,,,,,,,1*1D"
7753,347501642,0,0,GSA,1,0,"$GNGSA,A,1,,,,,,,,,,,,,,,,2*1E"
7755,347502467,0,0,GSA,1,0,"$GNGSA,A,1,,,,,,,,,,,,,,,,3*1F"
7757,347503323,0,0,GSA,1,0,"$GNGSA,A,1,,,,,,,,,,,,,,,,4*18"
7759,347504969,0,0,GSV,1,0,"$GPGSV,3,1,09,32,80,316,28,25,66,048,35,28,52,307,36,29,29,132,,1*69"
7760,347506580,0,0,GSV,1,0,"$GPGSV,3,2,09,12,28,045,37,10,27,207,,31,27,284,18,39,06,260,,1*69"
7761,347507425,0,0,GSV,1,0,"$GPGSV,3,3,09,03,04,329,24,1*54"
7762,347508842,0,0,GSV,1,0,"$GPGSV,1,1,03,32,80,316,20,25,66,048,37,28,52,307,26,8*53"
7773,347558941,0,0,GSV,1,0,"$GLGSV,1,1,04,74,69,321,35,72,67,319,31,73,34,034,35,65,15,330,37,1*7A"
7774,347559565,0,0,GSV,1,0,"$GAGSV,1,1,00,7*73"
7775,347560047,0,0,GSV,1,0,"$GAGSV,1,1,00,1*75"
7776,347560535,0,0,GSV,1,0,"$GBGSV,1,1,00,1*76"
7777,347561045,0,0,GSV,1,0,"$GBGSV,1,1,00,4*73"
7778,347562094,0,0,RMC,1,0,"$GNRMC,110351.000,V,,,,,,,170726,,,N,V*2B"
7780,347562809,0,0,VTG,1,0,"$GNVTG,,T,,M,,N,,K,N*32"
7782,347563553,0,0,MSG,1,0,"$PAIRMSG,90,110351.000,1*5E"
7783,347564342,0,0,MSG,1,0,"$PAIRMSG,91,110351.000,1,0*43"
8026,348485577,0,0,GGA,1,0,"$GNGGA,110352.000,,,,,0,0,,,M,,M,,*52"
8028,348486668,0,0,GLL,1,0,"$GNGLL,,,,,110352.000,V,N*60"
8029,348487475,0,0,GSA,1,0,"$GNGSA,A,1,,,,,,,,,,,,,,,,1*1D"
8031,348488352,0,0,GSA,1,0,"$GNGSA,A,1,,,,,,,,,,,,,,,,2*1E"
8033,348489241,0,0,GSA,1,0,"$GNGSA,A,1,,,,,,,,,,,,,,,,3*1F"
8035,348490085,0,0,GSA,1,0,"$GNGSA,A,1,,,,,,,,,,,,,,,,4*18"
8037,348491752,0,0,GSV,1,0,"$GPGSV,3,1,09,32,80,316,27,25,66,048,35,28,52,307,36,29,29,132,,1*66"
8038,348493354,0,0,GSV,1,0,"$GPGSV,3,2,09,12,28,045,37,10,27,207,,31,27,284,18,39,06,260,,1*69"
8063,348592525,0,0,GSV,1,0,"$GPGSV,3,3,09,03,04,329,24,1*54"
8064,348594054,0,0,GSV,1,0,"$GPGSV,1,1,03,32,80,316,20,25,66,048,37,28,52,307,26,8*53"
8065,348595757,0,0,GSV,1,0,"$GLGSV,1,1,04,74,69,321,35,72,67,319,31,73,34,034,35,65,15,330,37,1*7A"
8066,348596288,0,0,GSV,1,0,"$GAGSV,1,1,00,7*73"
8067,348596780,0,0,GSV,1,0,"$GAGSV,1,1,00,1*75"
8068,348597294,0,0,GSV,1,0,"$GBGSV,1,1,00,1*76"
8069,348597786,0,0,GSV,1,0,"$GBGSV,1,1,00,4*73"
8070,348598806,0,0,RMC,1,0,"$GNRMC,110352.000,V,,,,,,,170726,,,N,V*28"
8072,348599503,0,0,VTG,1,0,"$GNVTG,,T,,M,,N,,K,N*32"
8074,348600251,0,0,MSG,1,0,"$PAIRMSG,90,110352.000,1*5D"
8075,348601022,0,0,MSG,1,0,"$PAIRMSG,91,110352.000,1,0*40"
8300,349470057,0,0,GGA,1,0,"$GNGGA,110353.000,,,,,0,0,,,M,,M,,*53"
8302,349470984,0,0,GLL,1,0,"$GNGLL,,,,,110353.000,V,N*61"
8303,349471806,0,0,GSA,1,0,"$GNGSA,A,1,,,,,,,,,,,,,,,,1*1D"
8329,349568172,0,0,GSA,1,0,"$GNGSA,A,1,,,,,,,,,,,,,,,,2*1E"
8331,349569116,0,0,GSA,1,0,"$GNGSA,A,1,,,,,,,,,,,,,,,,3*1F"
8333,349569927,0,0,GSA,1,0,"$GNGSA,A,1,,,,,,,,,,,,,,,,4*18"
8335,349571645,0,0,GSV,1,0,"$GPGSV,3,1,09,32,80,316,26,25,66,048,34,28,52,307,36,29,29,132,15,1*62"
8336,349573373,0,0,GSV,1,0,"$GPGSV,3,2,09,12,28,045,37,10,27,207,,31,27,284,18,39,06,260,,1*69"
8337,349574269,0,0,GSV,1,0,"$GPGSV,3,3,09,03,04,329,24,1*54"
8338,349575655,0,0,GSV,1,0,"$GPGSV,1,1,03,32,80,316,21,25,66,048,38,28,52,307,26,8*5D"
8339,349577354,0,0,GSV,1,0,"$GLGSV,1,1,04,74,69,321,35,72,67,319,31,73,34,034,35,65,15,330,37,1*7A"
8340,349577904,0,0,GSV,1,0,"$GAGSV,1,1,00,7*73"
8341,349578393,0,0,GSV,1,0,"$GAGSV,1,1,00,1*75"
8342,349578883,0,0,GSV,1,0,"$GBGSV,1,1,00,1*76"
8343,349579368,0,0,GSV,1,0,"$GBGSV,1,1,00,4*73"
8344,349580385,0,0,RMC,1,0,"$GNRMC,110353.000,V,,,,,,,170726,,,N,V*29"
8370,349682119,0,0,VTG,1,0,"$GNVTG,,T,,M,,N,,K,N*32"
8372,349682986,0,0,MSG,1,0,"$PAIRMSG,90,110353.000,1*5C"
8373,349683773,0,0,MSG,1,0,"$PAIRMSG,91,110353.000,1,0*41"
8592,350502473,0,0,GGA,1,0,"$GNGGA,110354.000,,,,,0,0,,,M,,M,,*54"
8594,350503405,0,0,GLL,1,0,"$GNGLL,,,,,110354.000,V,N*66"
8595,350504189,0,0,GSA,1,0,"$GNGSA,A,1,,,,,,,,,,,,,,,,1*1D"
8597,350505009,0,0,GSA,1,0,"$GNGSA,A,1,,,,,,,,,,,,,,,,2*1E"
8599,350505869,0,0,GSA,1,0,"$GNGSA,A,1,,,,,,,,,,,,,,,,3*1F"
8601,350506655,0,0,GSA,1,0,"$GNGSA,A,1,,,,,,,,,,,,,,,,4*18"
8603,350508360,0,0,GSV,1,0,"$GPGSV,3,1,09,32,80,316,26,25,66,048,34,28,52,307,36,29,29,132,17,1*60"
8604,350510069,0,0,GSV,1,0,"$GPGSV,3,2,09,12,28,045,37,10,27,207,,31,27,284,18,39,06,260,,1*69"
8605,350510892,0,0,GSV,1,0,"$GPGSV,3,3,09,03,04,329,24,1*54"
8606,350512279,0,0,GSV,1,0,"$GPGSV,1,1,03,32,80,316,21,25,66,048,38,28,52,307,27,8*5C"
8607,350513974,0,0,GSV,1,0,"$GLGSV,1,1,04,74,69,321,35,72,67,319,31,73,34,034,35,65,15,330,37,1*7A"
8632,350617271,0,0,GSV,1,0,"$GAGSV,1,1,00,7*73"
8633,350617895,0,0,GSV,1,0,"$GAGSV,1,1,00,1*75"
8634,350618406,0,0,GSV,1,0,"$GBGSV,1,1,00,1*76"
8635,350618910,0,0,GSV,1,0,"$GBGSV,1,1,00,4*73"
8636,350619949,0,0,RMC,1,0,"$GNRMC,110354.000,V,,,,,,,170726,,,N,V*2E"
8638,350620670,0,0,VTG,1,0,"$GNVTG,,T,,M,,N,,K,N*32"
8640,350621407,0,0,MSG,1,0,"$PAIRMSG,90,110354.000,1*5B"
8641,350622229,0,0,MSG,1,0,"$PAIRMSG,91,110354.000,1,0*46"
8877,351515572,0,0,GGA,1,0,"$GNGGA,110355.000,,,,,0,0,,,M,,M,,*55"
8879,351516537,0,0,GLL,1,0,"$GNGLL,,,,,110355.000,V,N*67"
8880,351517321,0,0,GSA,1,0,"$GNGSA,A,1,,,,,,,,,,,,,,,,1*1D"
8882,351518165,0,0,GSA,1,0,"$GNGSA,A,1,,,,,,,,,,,,,,,,2*1E"
8884,351519001,0,0,GSA,1,0,"$GNGSA,A,1,,,,,,,,,,,,,,,,3*1F"
8886,351519785,0,0,GSA,1,0,"$GNGSA,A,1,,,,,,,,,,,,,,,,4*18"
8888,351521487,0,0,GSV,1,0,"$GPGSV,2,1,08,32,80,316,26,25,66,048,34,28,52,307,36,29,29,132,16,1*61"
8889,351523195,0,0,GSV,1,0,"$GPGSV,2,2,08,12,28,045,37,10,27,207,,31,27,284,18,03,04,329,25,1*69"
8890,351524586,0,0,GSV,1,0,"$GPGSV,1,1,03,32,80,316,20,25,66,048,38,28,52,307,27,8*5D"
8891,351526271,0,0,GSV,1,0,"$GLGSV,1,1,04,74,69,321,35,72,67,319,31,73,34,034,35,65,15,330,37,1*7A"
8892,351526806,0,0,GSV,1,0,"$GAGSV,1,1,00,7*73"
8893,351527295,0,0,GSV,1,0,"$GAGSV,1,1,00,1*75"
8918,351628011,0,0,GSV,1,0,"$GBGSV,1,1,00,1*76"
8919,351628632,0,0,GSV,1,0,"$GBGSV,1,1,00,4*73"
8920,351629643,0,0,RMC,1,0,"$GNRMC,110355.000,V,,,,,,,170726,,,N,V*2F"
8922,351630369,0,0,VTG,1,0,"$GNVTG,,T,,M,,N,,K,N*32"
8924,351631124,0,0,MSG,1,0,"$PAIRMSG,90,110355.000,1*5A"
8925,351631906,0,0,MSG,1,0,"$PAIRMSG,91,110355.000,1,0*47"
9144,352481605,0,0,GGA,1,0,"$GNGGA,110356.000,,,,,0,0,,,M,,M,,*56"
9146,352482676,0,0,GLL,1,0,"$GNGLL,,,,,110356.000,V,N*64"
9147,352483504,0,0,GSA,1,0,"$GNGSA,A,1,,,,,,,,,,,,,,,,1*1D"
9149,352484350,0,0,GSA,1,0,"$GNGSA,A,1,,,,,,,,,,,,,,,,2*1E"
9151,352485180,0,0,GSA,1,0,"$GNGSA,A,1,,,,,,,,,,,,,,,,3*1F"
9153,352485986,0,0,GSA,1,0,"$GNGSA,A,1,,,,,,,,,,,,,,,,4*18"
9179,352581334,0,0,GSV,1,0,"$GPGSV,2,1,08,32,80,316,26,25,66,048,34,28,52,307,36,29,29,132,15,1*62"
9180,352583116,0,0,GSV,1,0,"$GPGSV,2,2,08,12,28,045,37,10,27,207,,31,27,284,18,03,04,329,26,1*6A"
9181,352584553,0,0,GSV,1,0,"$GPGSV,1,1,03,32,80,316,21,25,66,048,38,28,52,307,27,8*5C"
9182,352586291,0,0,GSV,1,0,"$GLGSV,1,1,04,74,69,321,35,72,67,319,31,73,34,034,35,65,15,330,37,1*7A"
9183,352586793,0,0,GSV,1,0,"$GAGSV,1,1,00,7*73"
9184,352587323,0,0,GSV,1,0,"$GAGSV,1,1,00,1*75"
9185,352587811,0,0,GSV,1,0,"$GBGSV,1,1,00,1*76"
9186,352588343,0,0,GSV,1,0,"$GBGSV,1,1,00,4*73"
9187,352589362,0,0,RMC,1,0,"$GNRMC,110356.000,V,,,,,,,170726,,,N,V*2C"
9189,352590074,0,0,VTG,1,0,"$GNVTG,,T,,M,,N,,K,N*32"
9191,352590824,0,0,MSG,1,0,"$PAIRMSG,90,110356.000,1*59"
9192,352591579,0,0,MSG,1,0,"$PAIRMSG,91,110356.000,1,0*44"
9435,353515691,0,0,GGA,1,0,"$GNGGA,110357.000,,,,,0,0,,,M,,M,,*57"
9437,353516699,0,0,GLL,1,0,"$GNGLL,,,,,110357.000,V,N*65"
9438,353517520,0,0,GSA,1,0,"$GNGSA,A,1,,,,,,,,,,,,,,,,1*1D"
9440,353518351,0,0,GSA,1,0,"$GNGSA,A,1,,,,,,,,,,,,,,,,2*1E"
9442,353519139,0,0,GSA,1,0,"$GNGSA,A,1,,,,,,,,,,,,,,,,3*1F"
9444,353519925,0,0,GSA,1,0,"$GNGSA,A,1,,,,,,,,,,,,,,,,4*18"
9446,353521695,0,0,GSV,1,0,"$GPGSV,2,1,08,32,80,316,25,25,66,048,34,28,52,307,36,29,29,132,14,1*60"
9447,353523362,0,0,GSV,1,0,"$GPGSV,2,2,08,12,28,045,37,10,27,207,,31,27,284,18,03,04,329,26,1*6A"
9448,353524744,0,0,GSV,1,0,"$GPGSV,1,1,03,32,80,316,21,25,66,048,38,28,52,307,27,8*5C"
9449,353526467,0,0,GSV,1,0,"$GLGSV,1,1,04,74,69,321,35,72,67,319,31,73,34,034,35,65,15,330,37,1*7A"
9450,353526994,0,0,GSV,1,0,"$GAGSV,1,1,00,7*73"
9451,353527493,0,0,GSV,1,0,"$GAGSV,1,1,00,1*75"
9476,353632329,0,0,GSV,1,0,"$GBGSV,1,1,00,1*76"
9477,353632952,0,0,GSV,1,0,"$GBGSV,1,1,00,4*73"
9478,353633980,0,0,RMC,1,0,"$GNRMC,110357.000,V,,,,,,,170726,,,N,V*2D"
9480,353634695,0,0,VTG,1,0,"$GNVTG,,T,,M,,N,,K,N*32"
9482,353635431,0,0,MSG,1,0,"$PAIRMSG,90,110357.000,1*58"
9483,353636216,0,0,MSG,1,0,"$PAIRMSG,91,110357.000,1,0*45"
9726,354552102,0,0,GGA,1,0,"$GNGGA,110358.000,,,,,0,0,,,M,,M,,*58"
9728,354553039,0,0,GLL,1,0,"$GNGLL,,,,,110358.000,V,N*6A"
9729,354553851,0,0,GSA,1,0,"$GNGSA,A,1,,,,,,,,,,,,,,,,1*1D"
9731,354554654,0,0,GSA,1,0,"$GNGSA,A,1,,,,,,,,,,,,,,,,2*1E"
9733,354555437,0,0,GSA,1,0,"$GNGSA,A,1,,,,,,,,,,,,,,,,3*1F"
9735,354556249,0,0,GSA,1,0,"$GNGSA,A,1,,,,,,,,,,,,,,,,4*18"
9737,354558003,0,0,GSV,1,0,"$GPGSV,2,1,08,32,80,316,25,25,66,048,34,28,52,307,36,29,29,132,14,1*60"
9738,354559655,0,0,GSV,1,0,"$GPGSV,2,2,08,12,28,045,37,10,27,207,,31,27,284,18,03,04,329,26,1*6A"
9739,354561066,0,0,GSV,1,0,"$GPGSV,1,1,03,32,80,316,21,25,66,048,38,28,52,307,27,8*5C"
9740,354562814,0,0,GSV,1,0,"$GLGSV,1,1,04,74,69,321,35,72,67,319,30,73,34,034,35,65,15,330,37,1*7B"
9741,354563340,0,0,GSV,1,0,"$GAGSV,1,1,00,7*73"
9742,354563827,0,0,GSV,1,0,"$GAGSV,1,1,00,1*75"
9767,354667383,0,0,GSV,1,0,"$GBGSV,1,1,00,1*76"
9768,354668009,0,0,GSV,1,0,"$GBGSV,1,1,00,4*73"
9769,354669046,0,0,RMC,1,0,"$GNRMC,110358.000,V,,,,,,,170726,,,N,V*22"
9771,354669774,0,0,VTG,1,0,"$GNVTG,,T,,M,,N,,K,N*32"
9773,354670540,0,0,MSG,1,0,"$PAIRMSG,90,110358.000,1*57"
9774,354671294,0,0,MSG,1,0,"$PAIRMSG,91,110358.000,1,0*4A"
9993,355521053,0,0,GGA,1,0,"$GNGGA,110359.000,,,,,0,0,,,M,,M,,*59"
9995,355521982,0,0,GLL,1,0,"$GNGLL,,,,,110359.000,V,N*6B"
9996,355522897,0,0,GSA,1,0,"$GNGSA,A,1,,,,,,,,,,,,,,,,1*1D"
9998,355524001,0,0,GSA,1,0,"$GNGSA,A,1,,,,,,,,,,,,,,,,2*1E"
10000,355524790,0,0,GSA,1,0,"$GNGSA,A,1,,,,,,,,,,,,,,,,3*1F"
10002,355525592,0,0,GSA,1,0,"$GNGSA,A,1,,,,,,,,,,,,,,,,4*18"
10004,355527405,0,0,GSV,1,0,"$GPGSV,2,1,08,32,80,316,26,25,66,048,35,28,52,307,36,29,29,132,14,1*62"
10005,355529092,0,0,GSV,1,0,"$GPGSV,2,2,08,12,28,045,37,10,27,207,,31,27,284,18,03,04,329,26,1*6A"
10006,355530506,0,0,GSV,1,0,"$GPGSV,1,1,03,32,80,316,21,25,66,048,38,28,52,307,27,8*5C"
10007,355532261,0,0,GSV,1,0,"$GLGSV,1,1,04,74,69,321,35,72,67,319,30,73,34,034,35,65,15,330,37,1*7B"
10008,355532801,0,0,GSV,1,0,"$GAGSV,1,1,00,7*73"
10009,355533296,0,0,GSV,1,0,"$GAGSV,1,1,00,1*75"
10034,355637093,0,0,GSV,1,0,"$GBGSV,1,1,00,1*76"
10035,355637708,0,0,GSV,1,0,"$GBGSV,1,1,00,4*73"
10036,355638750,0,0,RMC,1,0,"$GNRMC,110359.000,V,,,,,,,170726,,,N,V*23"
10038,355639495,0,0,VTG,1,0,"$GNVTG,,T,,M,,N,,K,N*32"
10040,355640225,0,0,MSG,1,0,"$PAIRMSG,90,110359.000,1*56"
10041,355641018,0,0,MSG,1,0,"$PAIRMSG,91,110359.000,1,0*4B"
10260,356480847,0,0,GGA,1,0,"$GNGGA,110400.000,,,,,0,0,,,M,,M,,*52"
10262,356481770,0,0,GLL,1,0,"$GNGLL,,,,,110400.000,V,N*60"
10263,356482590,0,0,GSA,1,0,"$GNGSA,A,1,,,,,,,,,,,,,,,,1*1D"
10265,356483419,0,0,GSA,1,0,"$GNGSA,A,1,,,,,,,,,,,,,,,,2*1E"
10267,356484220,0,0,GSA,1,0,"$GNGSA,A,1,,,,,,,,,,,,,,,,3*1F"
10269,356485064,0,0,GSA,1,0,"$GNGSA,A,1,,,,,,,,,,,,,,,,4*18"
10295,356580846,0,0,GSV,1,0,"$GPGSV,2,1,08,32,80,316,28,25,66,048,36,28,52,307,36,29,29,132,14,1*6F"
10296,356582603,0,0,GSV,1,0,"$GPGSV,2,2,08,12,28,045,37,10,27,207,,31,27,284,18,03,04,329,25,1*69"
10297,356584008,0,0,GSV,1,0,"$GPGSV,1,1,03,32,80,316,22,25,66,048,39,28,52,307,28,8*51"
10298,356585723,0,0,GSV,1,0,"$GLGSV,1,1,04,74,69,321,35,72,67,319,29,73,34,034,36,65,15,330,37,1*70"
10299,356586254,0,0,GSV,1,0,"$GAGSV,1,1,00,7*73"
10300,356586741,0,0,GSV,1,0,"$GAGSV,1,1,00,1*75"
10301,356587254,0,0,GSV,1,0,"$GBGSV,1,1,00,1*76"
10302,356587730,0,0,GSV,1,0,"$GBGSV,1,1,00,4*73"
10303,356588747,0,0,RMC,1,0,"$GNRMC,110400.000,V,,,,,,,170726,,,N,V*28"
10305,356589486,0,0,VTG,1,0,"$GNVTG,,T,,M,,N,,K,N*32"
10307,356590205,0,0,MSG,1,0,"$PAIRMSG,90,110400.000,1*5D"
10308,356590979,0,0,MSG,1,0,"$PAIRMSG,91,110400.000,2,0*43"
10551,357499845,0,0,GGA,1,0,"$GNGGA,110401.000,,,,,0,0,,,M,,M,,*53"
10553,357500763,0,0,GLL,1,0,"$GNGLL,,,,,110401.000,V,N*61"
10554,357501577,0,0,GSA,1,0,"$GNGSA,A,1,,,,,,,,,,,,,,,,1*1D"
10556,357502486,0,0,GSA,1,0,"$GNGSA,A,1,,,,,,,,,,,,,,,,2*1E"
10558,357503335,0,0,GSA,1,0,"$GNGSA,A,1,,,,,,,,,,,,,,,,3*1F"
10560,357504128,0,0,GSA,1,0,"$GNGSA,A,1,,,,,,,,,,,,,,,,4*18"
10562,357505876,0,0,GSV,1,0,"$GPGSV,2,1,08,32,80,316,26,25,66,048,35,28,52,307,25,29,29,132,15,1*61"
10563,357507584,0,0,GSV,1,0,"$GPGSV,2,2,08,12,28,045,37,10,27,207,,31,27,284,18,03,04,329,24,1*68"
10564,357508990,0,0,GSV,1,0,"$GPGSV,1,1,03,32,80,316,21,25,66,048,27,28,52,307,20,8*55"
10565,357510684,0,0,GSV,1,0,"$GLGSV,1,1,04,74,69,321,24,72,67,319,22,73,34,034,29,65,15,330,22,1*71"
10590,357606092,0,0,GSV,1,0,"$GAGSV,1,1,00,7*73"
10591,357606712,0,0,GSV,1,0,"$GAGSV,1,1,00,1*75"
10592,357607201,0,0,GSV,1,0,"$GBGSV,1,1,00,1*76"
10593,357607683,0,0,GSV,1,0,"$GBGSV,1,1,00,4*73"
10594,357608695,0,0,RMC,1,0,"$GNRMC,110401.000,V,,,,,,,170726,,,N,V*29"
10596,357609388,0,0,VTG,1,0,"$GNVTG,,T,,M,,N,,K,N*32"
10598,357610093,0,0,MSG,1,0,"$PAIRMSG,90,110401.000,1*5C"
10599,357610832,0,0,MSG,1,0,"$PAIRMSG,91,110401.000,2,0*42"
10849,358545458,0,0,GGA,1,0,"$GNGGA,110402.000,,,,,0,0,,,M,,M,,*50"
10851,358546386,0,0,GLL,1,0,"$GNGLL,,,,,110402.000,V,N*62"
10852,358547160,0,0,GSA,1,0,"$GNGSA,A,1,,,,,,,,,,,,,,,,1*1D"
10854,358548004,0,0,GSA,1,0,"$GNGSA,A,1,,,,,,,,,,,,,,,,2*1E"
10856,358548788,0,0,GSA,1,0,"$GNGSA,A,1,,,,,,,,,,,,,,,,3*1F"
10858,358549564,0,0,GSA,1,0,"$GNGSA,A,1,,,,,,,,,,,,,,,,4*18"
10860,358551316,0,0,GSV,1,0,"$GPGSV,2,1,08,32,80,316,19,25,66,048,33,28,52,307,24,29,29,132,15,1*6A"
10861,358553016,0,0,GSV,1,0,"$GPGSV,2,2,08,12,28,045,30,10,27,207,,31,27,284,17,03,04,329,26,1*62"
10862,358554412,0,0,GSV,1,0,"$GPGSV,1,1,03,32,80,316,14,25,66,048,18,28,52,307,20,8*5F"
10863,358556095,0,0,GSV,1,0,"$GLGSV,1,1,04,74,69,321,22,72,67,319,21,73,34,034,30,65,15,330,23,1*7D"
10864,358556651,0,0,GSV,1,0,"$GAGSV,1,1,00,7*73"
10865,358557140,0,0,GSV,1,0,"$GAGSV,1,1,00,1*75"
10890,358663656,0,0,GSV,1,0,"$GBGSV,1,1,00,1*76"
10891,358664366,0,0,GSV,1,0,"$GBGSV,1,1,00,4*73"
10892,358665382,0,0,RMC,1,0,"$GNRMC,110402.000,V,,,,,,,170726,,,N,V*2A"
10894,358666102,0,0,VTG,1,0,"$GNVTG,,T,,M,,N,,K,N*32"
10896,358666871,0,0,MSG,1,0,"$PAIRMSG,90,110402.000,1*5F"
10897,358667637,0,0,MSG,1,0,"$PAIRMSG,91,110402.000,2,0*41"
11119,359508188,0,0,GGA,1,0,"$GNGGA,110403.000,,,,,0,0,,,M,,M,,*51"
11121,359509119,0,0,GLL,1,0,"$GNGLL,,,,,110403.000,V,N*63"
11122,359509935,0,0,GSA,1,0,"$GNGSA,A,1,,,,,,,,,,,,,,,,1*1D"
11124,359510744,0,0,GSA,1,0,"$GNGSA,A,1,,,,,,,,,,,,,,,,2*1E"
11126,359511619,0,0,GSA,1,0,"$GNGSA,A,1,,,,,,,,,,,,,,,,3*1F"
11128,359512454,0,0,GSA,1,0,"$GNGSA,A,1,,,,,,,,,,,,,,,,4*18"
11130,359514231,0,0,GSV,1,0,"$GPGSV,2,1,08,32,80,316,19,25,66,048,33,28,52,307,25,29,29,132,15,1*6B"
11131,359515897,0,0,GSV,1,0,"$GPGSV,2,2,08,12,28,045,28,10,27,207,,31,27,284,16,03,04,329,26,1*6A"
11132,359517317,0,0,GSV,1,0,"$GPGSV,1,1,03,32,80,316,14,25,66,048,18,28,52,307,19,8*55"
11133,359519078,0,0,GSV,1,0,"$GLGSV,1,1,04,74,69,321,21,72,67,319,20,73,34,034,28,65,15,330,23,1*76"
11134,359519584,0,0,GSV,1,0,"$GAGSV,1,1,00,7*73"
11135,359520083,0,0,GSV,1,0,"$GAGSV,1,1,00,1*75"
11160,359619835,0,0,GSV,1,0,"$GBGSV,1,1,00,1*76"
11161,359620447,0,0,GSV,1,0,"$GBGSV,1,1,00,4*73"
11162,359621462,0,0,RMC,1,0,"$GNRMC,110403.000,V,,,,,,,170726,,,N,V*2B"
11164,359622191,0,0,VTG,1,0,"$GNVTG,,T,,M,,N,,K,N*32"
11166,359622921,0,0,MSG,1,0,"$PAIRMSG,90,110403.000,1*5E"
11167,359623679,0,0,MSG,1,0,"$PAIRMSG,91,110403.000,2,0*40"
11410,360560337,0,0,GGA,1,0,"$GNGGA,110404.000,,,,,0,0,,,M,,M,,*56"
11412,360561281,0,0,GLL,1,0,"$GNGLL,,,,,110404.000,V,N*64"
11413,360562101,0,0,GSA,1,0,"$GNGSA,A,1,,,,,,,,,,,,,,,,1*1D"
11415,360562903,0,0,GSA,1,0,"$GNGSA,A,1,,,,,,,,,,,,,,,,2*1E"
11417,360563690,0,0,GSA,1,0,"$GNGSA,A,1,,,,,,,,,,,,,,,,3*1F"
11419,360564507,0,0,GSA,1,0,"$GNGSA,A,1,,,,,,,,,,,,,,,,4*18"
11421,360566279,0,0,GSV,1,0,"$GPGSV,2,1,08,32,80,316,29,25,66,048,35,28,52,307,25,29,29,132,17,1*6C"
11422,360567927,0,0,GSV,1,0,"$GPGSV,2,2,08,12,28,045,35,10,27,207,,31,27,284,17,03,04,329,25,1*64"
11423,360569695,0,0,GSV,1,0,"$GPGSV,1,1,04,32,80,316,13,25,66,048,30,28,52,307,20,03,04,329,17,8*6C"
11424,360571492,0,0,GSV,1,0,"$GLGSV,1,1,04,74,69,321,20,72,67,319,20,73,34,034,28,65,15,330,24,1*70"
11425,360572046,0,0,GSV,1,0,"$GAGSV,1,1,00,7*73"
11450,360672471,0,0,GSV,1,0,"$GAGSV,1,1,00,1*75"
11451,360673179,0,0,GSV,1,0,"$GBGSV,1,1,00,1*76"
11452,360673689,0,0,GSV,1,0,"$GBGSV,1,1,00,4*73"
11453,360674718,0,0,RMC,1,0,"$GNRMC,110404.000,V,,,,,,,170726,,,N,V*2C"
11455,360675446,0,0,VTG,1,0,"$GNVTG,,T,,M,,N,,K,N*32"
11457,360676227,0,0,MSG,1,0,"$PAIRMSG,90,110404.000,1*59"
11458,360677002,0,0,MSG,1,0,"$PAIRMSG,91,110404.000,2,0*47"
11677,361506192,0,0,GGA,1,0,"$GNGGA,110405.000,,,,,0,0,,,M,,M,,*57"
11679,361507127,0,0,GLL,1,0,"$GNGLL,,,,,110405.000,V,N*65"
11680,361507899,0,0,GSA,1,0,"$GNGSA,A,1,,,,,,,,,,,,,,,,1*1D"
11682,361508685,0,0,GSA,1,0,"$GNGSA,A,1,,,,,,,,,,,,,,,,2*1E"
11684,361509551,0,0,GSA,1,0,"$GNGSA,A,1,,,,,,,,,,,,,,,,3*1F"
11686,361510418,0,0,GSA,1,0,"$GNGSA,A,1,,,,,,,,,,,,,,,,4*18"
11688,361512120,0,0,GSV,1,0,"$GPGSV,2,1,08,32,80,316,29,25,66,048,36,28,52,307,24,29,29,132,18,1*61"
11689,361513776,0,0,GSV,1,0,"$GPGSV,2,2,08,12,28,045,36,10,27,207,,31,27,284,18,03,04,329,25,1*68"
11690,361515507,0,0,GSV,1,0,"$GPGSV,1,1,04,32,80,316,14,25,66,048,30,28,52,307,20,03,04,329,22,8*6D"
11691,361517261,0,0,GSV,1,0,"$GLGSV,1,1,04,74,69,321,22,72,67,319,22,73,34,034,30,65,15,330,25,1*78"
11692,361517797,0,0,GSV,1,0,"$GAGSV,1,1,00,7*73"
11717,361616438,0,0,GSV,1,0,"$GAGSV,1,1,00,1*75"
11718,361617057,0,0,GSV,1,0,"$GBGSV,1,1,00,1*76"
11719,361617560,0,0,GSV,1,0,"$GBGSV,1,1,00,4*73"
11720,361618593,0,0,RMC,1,0,"$GNRMC,110405.000,V,,,,,,,170726,,,N,V*2D"
11722,361619326,0,0,VTG,1,0,"$GNVTG,,T,,M,,N,,K,N*32"
11724,361620067,0,0,MSG,1,0,"$PAIRMSG,90,110405.000,1*58"
11725,361620827,0,0,MSG,1,0,"$PAIRMSG,91,110405.000,2,0*46"
11968,362527731,0,0,GGA,1,0,"$GNGGA,110406.000,,,,,0,0,,,M,,M,,*54"
11970,362528691,0,0,GLL,1,0,"$GNGLL,,,,,110406.000,V,N*66"
11971,362529478,0,0,GSA,1,0,"$GNGSA,A,1,,,,,,,,,,,,,,,,1*1D"
11973,362530316,0,0,GSA,1,0,"$GNGSA,A,1,,,,,,,,,,,,,,,,2*1E"
11975,362531118,0,0,GSA,1,0,"$GNGSA,A,1,,,,,,,,,,,,,,,,3*1F"
11977,362531967,0,0,GSA,1,0,"$GNGSA,A,1,,,,,,,,,,,,,,,,4*18"
11979,362533740,0,0,GSV,1,0,"$GPGSV,2,1,08,32,80,316,29,25,66,048,36,28,52,307,32,29,29,132,18,1*66"
11980,362535428,0,0,GSV,1,0,"$GPGSV,2,2,08,12,28,045,36,10,27,207,,31,27,284,18,03,04,329,26,1*6B"
11981,362537139,0,0,GSV,1,0,"$GPGSV,1,1,04,32,80,316,21,25,66,048,31,28,52,307,22,03,04,329,26,8*6C"
11982,362538880,0,0,GSV,1,0,"$GLGSV,1,1,04,74,69,321,23,72,67,319,22,73,34,034,32,65,15,330,32,1*7D"
11983,362539400,0,0,GSV,1,0,"$GAGSV,1,1,00,7*73"
12008,362638679,0,0,GSV,1,0,"$GAGSV,1,1,00,1*75"
12009,362639330,0,0,GSV,1,0,"$GBGSV,1,1,00,1*76"
12010,362639823,0,0,GSV,1,0,"$GBGSV,1,1,00,4*73"
12011,362640868,0,0,RMC,1,0,"$GNRMC,110406.000,V,,,,,,,170726,,,N,V*2E"
12013,362641573,0,0,VTG,1,0,"$GNVTG,,T,,M,,N,,K,N*32"
12015,362642307,0,0,MSG,1,0,"$PAIRMSG,90,110406.000,1*5B"
12016,362643069,0,0,MSG,1,0,"$PAIRMSG,91,110406.000,2,0*45"
12233,363474616,0,0,GGA,1,0,"$GNGGA,110407.000,,,,,0,0,,,M,,M,,*55"
12235,363475619,0,0,GLL,1,0,"$GNGLL,,,,,110407.000,V,N*67"
12236,363476434,0,0,GSA,1,0,"$GNGSA,A,1,,,,,,,,,,,,,,,,1*1D"
12264,363571618,0,0,GSA,1,0,"$GNGSA,A,1,,,,,,,,,,,,,,,,2*1E"
12266,363572563,0,0,GSA,1,0,"$GNGSA,A,1,,,,,,,,,,,,,,,,3*1F"
12268,363573364,0,0,GSA,1,0,"$GNGSA,A,1,,,,,,,,,,,,,,,,4*18"
12270,363575128,0,0,GSV,1,0,"$GPGSV,2,1,08,32,80,316,30,25,66,048,35,28,52,307,30,29,29,132,18,1*6F"
12271,363576795,0,0,GSV,1,0,"$GPGSV,2,2,08,12,28,045,38,10,27,207,,31,27,284,19,03,04,329,27,1*65"
12272,363578519,0,0,GSV,1,0,"$GPGSV,1,1,04,32,80,316,20,25,66,048,33,28,52,307,24,03,04,329,28,8*67"
12273,363580229,0,0,GSV,1,0,"$GLGSV,1,1,04,74,69,321,30,72,67,319,24,73,34,034,31,65,15,330,32,1*7A"
12274,363580758,0,0,GSV,1,0,"$GAGSV,1,1,00,7*73"
12275,363581244,0,0,GSV,1,0,"$GAGSV,1,1,00,1*75"
12276,363581731,0,0,GSV,1,0,"$GBGSV,1,1,00,1*76"
12277,363582232,0,0,GSV,1,0,"$GBGSV,1,1,00,4*73"
12278,363583281,0,0,RMC,1,0,"$GNRMC,110407.000,V,,,,,,,170726,,,N,V*2F"
12280,363583976,0,0,VTG,1,0,"$GNVTG,,T,,M,,N,,K,N*32"
12306,363689035,0,0,MSG,1,0,"$PAIRMSG,90,110407.000,1*5A"
12307,363689906,0,0,MSG,1,0,"$PAIRMSG,91,110407.000,2,0*44"
12524,364514277,0,0,GGA,1,0,"$GNGGA,110408.000,,,,,0,0,,,M,,M,,*5A"
12526,364515215,0,0,GLL,1,0,"$GNGLL,,,,,110408.000,V,N*68"
12527,364516031,0,0,GSA,1,0,"$GNGSA,A,1,,,,,,,,,,,,,,,,1*1D"
12529,364516824,0,0,GSA,1,0,"$GNGSA,A,1,,,,,,,,,,,,,,,,2*1E"
12531,364517600,0,0,GSA,1,0,"$GNGSA,A,1,,,,,,,,,,,,,,,,3*1F"
12533,364518478,0,0,GSA,1,0,"$GNGSA,A,1,,,,,,,,,,,,,,,,4*18"
12535,364520263,0,0,GSV,1,0,"$GPGSV,2,1,08,32,80,316,28,25,66,048,35,28,52,307,22,29,29,132,18,1*65"
12536,364521938,0,0,GSV,1,0,"$GPGSV,2,2,08,12,28,045,38,10,27,207,,31,27,284,18,03,04,329,27,1*64"
12537,364523689,0,0,GSV,1,0,"$GPGSV,1,1,04,32,80,316,19,25,66,048,32,28,52,307,25,03,04,329,24,8*61"
12538,364525392,0,0,GSV,1,0,"$GLGSV,1,1,04,74,69,321,30,72,67,319,25,73,34,034,31,65,15,330,32,1*7B"
12539,364525922,0,0,GSV,1,0,"$GAGSV,1,1,00,7*73"
12566,364623634,0,0,GSV,1,0,"$GAGSV,1,1,00,1*75"
12567,364624319,0,0,GSV,1,0,"$GBGSV,1,1,00,1*76"
12568,364624830,0,0,GSV,1,0,"$GBGSV,1,1,00,4*73"
12569,364625869,0,0,RMC,1,0,"$GNRMC,110408.000,V,,,,,,,170726,,,N,V*20"
12571,364626583,0,0,VTG,1,0,"$GNVTG,,T,,M,,N,,K,N*32"
12573,364627311,0,0,MSG,1,0,"$PAIRMSG,90,110408.000,1*55"
12574,364628086,0,0,MSG,1,0,"$PAIRMSG,91,110408.000,2,0*4B"
12778,365422514,0,0,010,1,0,"$PAIR010,0,0,2427,471866*32"
12779,365423351,0,0,010,1,0,"$PAIR010,0,1,2427,471986*3C"
12780,365424058,0,0,010,1,0,"$PAIR010,0,3,2427,471986*3E"
12781,365424767,0,0,010,1,0,"$PAIR010,0,2,2427,471986*3F"
12806,365519249,0,0,GGA,1,0,"$GNGGA,110409.000,,,,,0,0,,,M,,M,,*5B"
12808,365520178,0,0,GLL,1,0,"$GNGLL,,,,,110409.000,V,N*69"
12809,365520981,0,0,GSA,1,0,"$GNGSA,A,1,,,,,,,,,,,,,,,,1*1D"
12811,365521817,0,0,GSA,1,0,"$GNGSA,A,1,,,,,,,,,,,,,,,,2*1E"
12813,365522967,0,0,GSA,1,0,"$GNGSA,A,1,,,,,,,,,,,,,,,,3*1F"
12815,365524102,0,0,GSA,1,0,"$GNGSA,A,1,,,,,,,,,,,,,,,,4*18"
12817,365525908,0,0,GSV,1,0,"$GPGSV,2,1,08,32,80,316,17,25,66,048,33,28,52,307,23,29,29,132,17,1*61"
12818,365527557,0,0,GSV,1,0,"$GPGSV,2,2,08,12,28,045,37,10,27,207,,31,27,284,17,03,04,329,29,1*6A"
12819,365529353,0,0,GSV,1,0,"$GPGSV,1,1,04,32,80,316,17,25,66,048,24,28,52,307,23,03,04,329,23,8*69"
12820,365531174,0,0,GSV,1,0,"$GLGSV,1,1,04,74,69,321,29,72,67,319,27,73,34,034,24,65,15,330,23,1*75"
12821,365531696,0,0,GSV,1,0,"$GAGSV,1,1,00,7*73"
12848,365638443,0,0,GSV,1,0,"$GAGSV,1,1,00,1*75"
12849,365639070,0,0,GSV,1,0,"$GBGSV,1,1,00,1*76"
12850,365639583,0,0,GSV,1,0,"$GBGSV,1,1,00,4*73"
12851,365640613,0,0,RMC,1,0,"$GNRMC,110409.000,V,,,,,,,170726,,,N,V*21"
12853,365641333,0,0,VTG,1,0,"$GNVTG,,T,,M,,N,,K,N*32"
12855,365642082,0,0,MSG,1,0,"$PAIRMSG,90,110409.000,1*54"
12856,365642861,0,0,MSG,1,0,"$PAIRMSG,91,110409.000,2,0*4A"
13073,366473357,0,0,GGA,1,0,"$GNGGA,110410.000,,,,,0,0,,,M,,M,,*53"
13075,366474286,0,0,GLL,1,0,"$GNGLL,,,,,110410.000,V,N*61"
13076,366475063,0,0,GSA,1,0,"$GNGSA,A,1,,,,,,,,,,,,,,,,1*1D"
13102,366570286,0,0,GSA,1,0,"$GNGSA,A,1,,,,,,,,,,,,,,,,2*1E"
13104,366571240,0,0,GSA,1,0,"$GNGSA,A,1,,,,,,,,,,,,,,,,3*1F"
13106,366572074,0,0,GSA,1,0,"$GNGSA,A,1,,,,,,,,,,,,,,,,4*18"
13108,366573840,0,0,GSV,1,0,"$GPGSV,2,1,08,32,80,316,16,25,66,048,32,28,52,307,24,29,29,132,16,1*67"
13109,366575519,0,0,GSV,1,0,"$GPGSV,2,2,08,12,28,045,37,10,27,207,,31,27,284,17,03,04,329,30,1*62"
13110,366577258,0,0,GSV,1,0,"$GPGSV,1,1,04,32,80,316,15,25,66,048,24,28,52,307,22,03,04,329,22,8*6B"
13111,366578965,0,0,GSV,1,0,"$GLGSV,1,1,04,74,69,321,29,72,67,319,28,73,34,034,24,65,15,330,24,1*7D"
13112,366579507,0,0,GSV,1,0,"$GAGSV,1,1,00,7*73"
13113,366579992,0,0,GSV,1,0,"$GAGSV,1,1,00,1*75"
13114,366580480,0,0,GSV,1,0,"$GBGSV,1,1,00,1*76"
13115,366580964,0,0,GSV,1,0,"$GBGSV,1,1,00,4*73"
13116,366581977,0,0,RMC,1,0,"$GNRMC,110410.000,V,,,,,,,170726,,,N,V*29"
13118,366582712,0,0,VTG,1,0,"$GNVTG,,T,,M,,N,,K,N*32"
13142,366671423,0,0,MSG,1,0,"$PAIRMSG,90,110410.000,1*5C"
13143,366672312,0,0,MSG,1,0,"$PAIRMSG,91,110410.000,2,0*42"
13360,367511180,0,0,GGA,1,0,"$GNGGA,110411.000,,,,,0,0,,,M,,M,,*52"
13362,367512111,0,0,GLL,1,0,"$GNGLL,,,,,110411.000,V,N*60"
13363,367512921,0,0,GSA,1,0,"$GNGSA,A,1,,,,,,,,,,,,,,,,1*1D"
13365,367513728,0,0,GSA,1,0,"$GNGSA,A,1,,,,,,,,,,,,,,,,2*1E"
13367,367514541,0,0,GSA,1,0,"$GNGSA,A,1,,,,,,,,,,,,,,,,3*1F"
13369,367515339,0,0,GSA,1,0,"$GNGSA,A,1,,,,,,,,,,,,,,,,4*18"
13371,367517101,0,0,GSV,1,0,"$GPGSV,2,1,08,32,80,316,16,25,66,048,32,28,52,307,25,29,29,132,15,1*65"
13372,367518807,0,0,GSV,1,0,"$GPGSV,2,2,08,12,28,045,36,10,27,207,,31,27,284,16,03,04,329,31,1*63"
13373,367520573,0,0,GSV,1,0,"$GPGSV,1,1,04,32,80,316,13,25,66,048,24,28,52,307,22,03,04,329,22,8*6D"
13374,367522292,0,0,GSV,1,0,"$GLGSV,1,1,04,74,69,321,29,72,67,319,29,73,34,034,23,65,15,330,24,1*7B"
13375,367522815,0,0,GSV,1,0,"$GAGSV,1,1,00,7*73"
13400,367622541,0,0,GSV,1,0,"$GAGSV,1,1,00,1*75"
13401,367623189,0,0,GSV,1,0,"$GBGSV,1,1,00,1*76"
13402,367623698,0,0,GSV,1,0,"$GBGSV,1,1,00,4*73"
13403,367624729,0,0,RMC,1,0,"$GNRMC,110411.000,V,,,,,,,170726,,,N,V*28"
13405,367625472,0,0,VTG,1,0,"$GNVTG,,T,,M,,N,,K,N*32"
13407,367626207,0,0,MSG,1,0,"$PAIRMSG,90,110411.000,1*5D"
13408,367626960,0,0,MSG,1,0,"$PAIRMSG,91,110411.000,1,0*40"
13651,368541319,0,0,GGA,1,0,"$GNGGA,110412.000,,,,,0,0,,,M,,M,,*51"
13653,368542247,0,0,GLL,1,0,"$GNGLL,,,,,110412.000,V,N*63"
13654,368543024,0,0,GSA,1,0,"$GNGSA,A,1,,,,,,,,,,,,,,,,1*1D"
13656,368543821,0,0,GSA,1,0,"$GNGSA,A,1,,,,,,,,,,,,,,,,2*1E"
13658,368544650,0,0,GSA,1,0,"$GNGSA,A,1,,,,,,,,,,,,,,,,3*1F"
13660,368545478,0,0,GSA,1,0,"$GNGSA,A,1,,,,,,,,,,,,,,,,4*18"
13662,368547193,0,0,GSV,1,0,"$GPGSV,2,1,08,32,80,316,16,25,66,048,31,28,52,307,26,29,29,132,16,1*66"
13663,368548890,0,0,GSV,1,0,"$GPGSV,2,2,08,12,28,045,35,10,27,207,,31,27,284,16,03,04,329,32,1*63"
13664,368550586,0,0,GSV,1,0,"$GPGSV,1,1,04,32,80,316,12,25,66,048,24,28,52,307,21,03,04,329,21,8*6C"
13665,368552281,0,0,GSV,1,0,"$GLGSV,1,1,04,74,69,321,29,72,67,319,29,73,34,034,23,65,15,330,24,1*7B"
13666,368552824,0,0,GSV,1,0,"$GAGSV,1,1,00,7*73"
13691,368649940,0,0,GSV,1,0,"$GAGSV,1,1,00,1*75"
13692,368650539,0,0,GSV,1,0,"$GBGSV,1,1,00,1*76"
13693,368651047,0,0,GSV,1,0,"$GBGSV,1,1,00,4*73"
13694,368652224,0,0,RMC,1,0,"$GNRMC,110412.000,V,,,,,,,170726,,,N,V*2B"
13696,368653018,0,0,VTG,1,0,"$GNVTG,,T,,M,,N,,K,N*32"
13698,368653759,0,0,MSG,1,0,"$PAIRMSG,90,110412.000,1*5E"
13699,368654581,0,0,MSG,1,0,"$PAIRMSG,91,110412.000,1,0*43"
13936,369563324,0,0,GGA,1,0,"$GNGGA,110413.000,,,,,0,0,,,M,,M,,*50"
13938,369564247,0,0,GLL,1,0,"$GNGLL,,,,,110413.000,V,N*62"
13939,369565017,0,0,GSA,1,0,"$GNGSA,A,1,,,,,,,,,,,,,,,,1*1D"
13941,369565828,0,0,GSA,1,0,"$GNGSA,A,1,,,,,,,,,,,,,,,,2*1E"
13943,369566734,0,0,GSA,1,0,"$GNGSA,A,1,,,,,,,,,,,,,,,,3*1F"
13945,369567686,0,0,GSA,1,0,"$GNGSA,A,1,,,,,,,,,,,,,,,,4*18"
13947,369569515,0,0,GSV,1,0,"$GPGSV,2,1,08,32,80,316,17,25,66,048,31,28,52,307,27,29,29,132,16,1*66"
13948,369571237,0,0,GSV,1,0,"$GPGSV,2,2,08,12,28,045,35,10,27,207,,31,27,284,16,03,04,329,32,1*63"
13949,369572972,0,0,GSV,1,0,"$GPGSV,1,1,04,32,80,316,11,25,66,048,24,28,52,307,21,03,04,329,20,8*6E"
13950,369574664,0,0,GSV,1,0,"$GLGSV,1,1,04,74,69,321,29,72,67,319,29,73,34,034,24,65,15,330,24,1*7C"
13951,369575204,0,0,GSV,1,0,"$GAGSV,1,1,00,7*73"
13976,369676893,0,0,GSV,1,0,"$GAGSV,1,1,00,1*75"
13977,369677503,0,0,GSV,1,0,"$GBGSV,1,1,00,1*76"
13978,369677997,0,0,GSV,1,0,"$GBGSV,1,1,00,4*73"
13979,369679040,0,0,RMC,1,0,"$GNRMC,110413.000,V,,,,,,,170726,,,N,V*2A"
13981,369679753,0,0,VTG,1,0,"$GNVTG,,T,,M,,N,,K,N*32"
13983,369680507,0,0,MSG,1,0,"$PAIRMSG,90,110413.000,1*5F"
13984,369681267,0,0,MSG,1,0,"$PAIRMSG,91,110413.000,1,0*42"
14212,370532886,0,0,GGA,1,0,"$GNGGA,110414.000,,,,,0,0,,,M,,M,,*57"
14214,370533831,0,0,GLL,1,0,"$GNGLL,,,,,110414.000,V,N*65"
14215,370534599,0,0,GSA,1,0,"$GNGSA,A,1,,,,,,,,,,,,,,,,1*1D"
14217,370535395,0,0,GSA,1,0,"$GNGSA,A,1,,,,,,,,,,,,,,,,2*1E"
14219,370536238,0,0,GSA,1,0,"$GNGSA,A,1,,,,,,,,,,,,,,,,3*1F"
14221,370537069,0,0,GSA,1,0,"$GNGSA,A,1,,,,,,,,,,,,,,,,4*18"
14223,370538765,0,0,GSV,1,0,"$GPGSV,2,1,08,32,80,316,18,25,66,048,31,28,52,307,27,29,29,132,16,1*69"
