sequence,rx_end_us,delta_us,fault_code,nmea_type,checksum_valid,truncated,nmea
25,198006818,0,0,GGA,1,0,"$GNGGA,111239.000,3629.0032,N,13634.4380,E,1,15,1.79,47.4,M,34.9,M,,*4A"
27,198008319,0,0,GLL,1,0,"$GNGLL,3629.0032,N,13634.4380,E,111239.000,A,A*4D"
28,198009638,0,0,GSA,1,0,"$GNGSA,A,3,32,25,28,12,03,,,,,,,,2.03,1.79,0.96,1*0C"
30,198010993,0,0,GSA,1,0,"$GNGSA,A,3,72,74,73,65,,,,,,,,,2.03,1.79,0.96,2*02"
32,198012208,0,0,GSA,1,0,"$GNGSA,A,3,02,,,,,,,,,,,,2.03,1.79,0.96,3*00"
34,198013343,0,0,GSA,1,0,"$GNGSA,A,3,,,,,,,,,,,,,2.03,1.79,0.96,4*05"
36,198015194,0,0,GSV,1,0,"$GPGSV,2,1,08,32,84,305,21,25,63,047,32,28,54,311,34,29,31,129,14,1*6E"
37,198016938,0,0,GSV,1,0,"$GPGSV,2,2,08,31,29,286,17,12,25,045,18,10,24,206,18,03,06,327,23,1*6B"
62,198120648,0,0,GSV,1,0,"$GPGSV,1,1,04,32,84,305,16,25,63,047,31,28,54,311,16,03,06,327,17,8*6C"
63,198122462,0,0,GSV,1,0,"$GLGSV,2,1,05,72,71,312,28,74,68,333,31,73,31,037,30,65,19,330,33,1*71"
64,198123282,0,0,GSV,1,0,"$GLGSV,2,2,05,83,03,072,28,1*4A"
65,198124093,0,0,GSV,1,0,"$GAGSV,1,1,01,02,15,042,35,7*44"
66,198124897,0,0,GSV,1,0,"$GAGSV,1,1,01,02,15,042,23,1*45"
67,198125588,0,0,GSV,1,0,"$GBGSV,1,1,01,16,,,27,1*75"
68,198126082,0,0,GSV,1,0,"$GBGSV,1,1,00,4*73"
69,198127824,0,0,RMC,1,0,"$GNRMC,111239.000,A,3629.0032,N,13634.4380,E,0.17,182.99,170726,,,A,V*08"
71,198128971,0,0,VTG,1,0,"$GNVTG,182.99,T,,M,0.17,N,0.32,K,A*2F"
73,198129746,0,0,MSG,1,0,"$PAIRMSG,90,111239.000,1*50"
74,198130512,0,0,MSG,1,0,"$PAIRMSG,91,111239.000,1,0*4D"
317,199060549,0,0,GGA,1,0,"$GNGGA,111240.000,3629.0031,N,13634.4380,E,1,15,1.79,47.4,M,34.9,M,,*47"
319,199062052,0,0,GLL,1,0,"$GNGLL,3629.0031,N,13634.4380,E,111240.000,A,A*40"
320,199063387,0,0,GSA,1,0,"$GNGSA,A,3,32,25,28,12,03,,,,,,,,2.03,1.79,0.96,1*0C"
322,199064720,0,0,GSA,1,0,"$GNGSA,A,3,72,74,73,65,,,,,,,,,2.03,1.79,0.96,2*02"
324,199065921,0,0,GSA,1,0,"$GNGSA,A,3,02,,,,,,,,,,,,2.03,1.79,0.96,3*00"
326,199067061,0,0,GSA,1,0,"$GNGSA,A,3,,,,,,,,,,,,,2.03,1.79,0.96,4*05"
328,199068870,0,0,GSV,1,0,"$GPGSV,2,1,08,32,84,305,20,25,63,047,32,28,54,311,34,29,31,129,14,1*6F"
329,199070604,0,0,GSV,1,0,"$GPGSV,2,2,08,31,29,286,17,12,25,045,18,10,24,206,18,03,06,327,23,1*6B"
354,199177739,0,0,GSV,1,0,"$GPGSV,1,1,04,32,84,305,16,25,63,047,31,28,54,311,17,03,06,327,17,8*6D"
355,199179596,0,0,GSV,1,0,"$GLGSV,2,1,05,72,71,312,28,74,68,333,31,73,31,037,29,65,19,330,33,1*79"
356,199180417,0,0,GSV,1,0,"$GLGSV,2,2,05,83,03,072,28,1*4A"
357,199181225,0,0,GSV,1,0,"$GAGSV,1,1,01,02,15,042,35,7*44"
358,199182031,0,0,GSV,1,0,"$GAGSV,1,1,01,02,15,042,23,1*45"
359,199182714,0,0,GSV,1,0,"$GBGSV,1,1,01,16,,,27,1*75"
360,199183221,0,0,GSV,1,0,"$GBGSV,1,1,00,4*73"
361,199184985,0,0,RMC,1,0,"$GNRMC,111240.000,A,3629.0031,N,13634.4380,E,0.12,182.99,170726,,,A,V*00"
363,199186105,0,0,VTG,1,0,"$GNVTG,182.99,T,,M,0.12,N,0.23,K,A*2A"
365,199186917,0,0,MSG,1,0,"$PAIRMSG,90,111240.000,1*5E"
366,199187660,0,0,MSG,1,0,"$PAIRMSG,91,111240.000,1,0*43"
585,200012788,0,0,GGA,1,0,"$GNGGA,111241.000,3629.0031,N,13634.4379,E,1,15,1.79,47.4,M,34.9,M,,*40"
587,200014344,0,0,GLL,1,0,"$GNGLL,3629.0031,N,13634.4379,E,111241.000,A,A*47"
588,200015670,0,0,GSA,1,0,"$GNGSA,A,3,32,25,28,12,03,,,,,,,,2.03,1.79,0.96,1*0C"
590,200016982,0,0,GSA,1,0,"$GNGSA,A,3,72,74,73,65,,,,,,,,,2.03,1.79,0.96,2*02"
592,200018235,0,0,GSA,1,0,"$GNGSA,A,3,02,,,,,,,,,,,,2.03,1.79,0.96,3*00"
594,200019323,0,0,GSA,1,0,"$GNGSA,A,3,,,,,,,,,,,,,2.03,1.79,0.96,4*05"
596,200021101,0,0,GSV,1,0,"$GPGSV,2,1,08,32,84,305,20,25,63,047,32,28,54,311,34,29,31,129,14,1*6F"
597,200022913,0,0,GSV,1,0,"$GPGSV,2,2,08,31,29,286,17,12,25,045,18,10,24,206,18,03,06,327,23,1*6B"
605,200063035,0,0,GSV,1,0,"$GPGSV,1,1,04,32,84,305,16,25,63,047,31,28,54,311,17,03,06,327,17,8*6D"
606,200064866,0,0,GSV,1,0,"$GLGSV,2,1,05,72,71,312,28,74,68,333,31,73,31,037,29,65,19,330,33,1*79"
607,200065654,0,0,GSV,1,0,"$GLGSV,2,2,05,83,03,072,28,1*4A"
608,200066442,0,0,GSV,1,0,"$GAGSV,1,1,01,02,15,042,35,7*44"
609,200067275,0,0,GSV,1,0,"$GAGSV,1,1,01,02,15,042,23,1*45"
610,200067962,0,0,GSV,1,0,"$GBGSV,1,1,01,16,,,27,1*75"
611,200068453,0,0,GSV,1,0,"$GBGSV,1,1,00,4*73"
612,200070170,0,0,RMC,1,0,"$GNRMC,111241.000,A,3629.0031,N,13634.4379,E,0.17,182.99,170726,,,A,V*02"
614,200071324,0,0,VTG,1,0,"$GNVTG,182.99,T,,M,0.17,N,0.32,K,A*2F"
616,200072074,0,0,MSG,1,0,"$PAIRMSG,90,111241.000,1*5F"
617,200072827,0,0,MSG,1,0,"$PAIRMSG,91,111241.000,1,0*42"
858,201002037,0,0,GGA,1,0,"$GNGGA,111242.000,3629.0031,N,13634.4380,E,1,15,1.79,47.4,M,34.9,M,,*45"
860,201003562,0,0,GLL,1,0,"$GNGLL,3629.0031,N,13634.4380,E,111242.000,A,A*42"
861,201004984,0,0,GSA,1,0,"$GNGSA,A,3,32,25,28,12,03,,,,,,,,2.03,1.79,0.96,1*0C"
863,201006380,0,0,GSA,1,0,"$GNGSA,A,3,72,74,73,65,,,,,,,,,2.03,1.79,0.96,2*02"
865,201007572,0,0,GSA,1,0,"$GNGSA,A,3,02,,,,,,,,,,,,2.03,1.79,0.96,3*00"
867,201008734,0,0,GSA,1,0,"$GNGSA,A,3,,,,,,,,,,,,,2.03,1.79,0.96,4*05"
869,201010468,0,0,GSV,1,0,"$GPGSV,2,1,08,32,84,305,21,25,63,047,32,28,54,311,34,29,31,129,13,1*69"
870,201012216,0,0,GSV,1,0,"$GPGSV,2,2,08,31,29,286,17,12,25,045,18,10,24,206,18,03,06,327,23,1*6B"
897,201111997,0,0,GSV,1,0,"$GPGSV,1,1,04,32,84,305,16,25,63,047,31,28,54,311,17,03,06,327,17,8*6D"
898,201113827,0,0,GSV,1,0,"$GLGSV,2,1,05,72,71,312,28,74,68,333,31,73,31,037,28,65,19,330,33,1*78"
899,201114635,0,0,GSV,1,0,"$GLGSV,2,2,05,83,03,072,28,1*4A"
900,201115440,0,0,GSV,1,0,"$GAGSV,1,1,01,02,15,042,35,7*44"
901,201116244,0,0,GSV,1,0,"$GAGSV,1,1,01,02,15,042,23,1*45"
902,201116920,0,0,GSV,1,0,"$GBGSV,1,1,01,16,,,26,1*74"
903,201117410,0,0,GSV,1,0,"$GBGSV,1,1,00,4*73"
904,201119318,0,0,RMC,1,0,"$GNRMC,111242.000,A,3629.0031,N,13634.4380,E,0.25,182.99,170726,,,A,V*06"
906,201120557,0,0,VTG,1,0,"$GNVTG,182.99,T,,M,0.25,N,0.46,K,A*2D"
908,201121312,0,0,MSG,1,0,"$PAIRMSG,90,111242.000,1*5C"
909,201122084,0,0,MSG,1,0,"$PAIRMSG,91,111242.000,1,0*41"
1150,202049303,0,0,GGA,1,0,"$GNGGA,111243.000,3629.0031,N,13634.4379,E,1,15,1.79,47.5,M,34.9,M,,*43"
1152,202050798,0,0,GLL,1,0,"$GNGLL,3629.0031,N,13634.4379,E,111243.000,A,A*45"
1153,202052134,0,0,GSA,1,0,"$GNGSA,A,3,32,25,28,12,03,,,,,,,,2.03,1.79,0.96,1*0C"
1155,202053454,0,0,GSA,1,0,"$GNGSA,A,3,72,74,73,65,,,,,,,,,2.03,1.79,0.96,2*02"
1157,202054674,0,0,GSA,1,0,"$GNGSA,A,3,02,,,,,,,,,,,,2.03,1.79,0.96,3*00"
1159,202055826,0,0,GSA,1,0,"$GNGSA,A,3,,,,,,,,,,,,,2.03,1.79,0.96,4*05"
1161,202057609,0,0,GSV,1,0,"$GPGSV,2,1,08,32,84,305,21,25,63,047,32,28,54,311,34,29,31,129,13,1*69"
1162,202059365,0,0,GSV,1,0,"$GPGSV,2,2,08,31,29,286,17,12,25,045,19,10,24,206,18,03,06,327,23,1*6A"
1172,202097893,0,0,GSV,1,0,"$GPGSV,1,1,04,32,84,305,16,25,63,047,31,28,54,311,17,03,06,327,17,8*6D"
1173,202099719,0,0,GSV,1,0,"$GLGSV,2,1,05,72,71,312,28,74,68,333,31,73,31,037,28,65,19,330,33,1*78"
1174,202100533,0,0,GSV,1,0,"$GLGSV,2,2,05,83,03,072,28,1*4A"
1175,202101360,0,0,GSV,1,0,"$GAGSV,1,1,01,02,15,042,35,7*44"
1176,202102170,0,0,GSV,1,0,"$GAGSV,1,1,01,02,15,042,23,1*45"
1177,202102853,0,0,GSV,1,0,"$GBGSV,1,1,01,16,,,26,1*74"
1178,202103348,0,0,GSV,1,0,"$GBGSV,1,1,00,4*73"
1179,202105070,0,0,RMC,1,0,"$GNRMC,111243.000,A,3629.0031,N,13634.4379,E,0.16,182.99,170726,,,A,V*01"
1181,202106217,0,0,VTG,1,0,"$GNVTG,182.99,T,,M,0.16,N,0.29,K,A*24"
1183,202107001,0,0,MSG,1,0,"$PAIRMSG,90,111243.000,1*5D"
1184,202107820,0,0,MSG,1,0,"$PAIRMSG,91,111243.000,1,0*40"
1413,202998665,0,0,GGA,1,0,"$GNGGA,111244.000,3629.0030,N,13634.4379,E,1,15,1.79,47.5,M,34.9,M,,*45"
1415,203000150,0,0,GLL,1,0,"$GNGLL,3629.0030,N,13634.4379,E,111244.000,A,A*43"
1416,203001480,0,0,GSA,1,0,"$GNGSA,A,3,32,25,28,12,03,,,,,,,,2.03,1.79,0.96,1*0C"
1418,203002780,0,0,GSA,1,0,"$GNGSA,A,3,72,74,73,65,,,,,,,,,2.03,1.79,0.96,2*02"
1420,203003985,0,0,GSA,1,0,"$GNGSA,A,3,02,,,,,,,,,,,,2.03,1.79,0.96,3*00"
1422,203005195,0,0,GSA,1,0,"$GNGSA,A,3,,,,,,,,,,,,,2.03,1.79,0.96,4*05"
1424,203006999,0,0,GSV,1,0,"$GPGSV,2,1,08,32,84,305,21,25,63,047,33,28,54,311,34,29,31,129,12,1*69"
1425,203008746,0,0,GSV,1,0,"$GPGSV,2,2,08,31,29,286,17,12,25,045,19,10,24,206,18,03,06,327,23,1*6A"
1450,203108213,0,0,GSV,1,0,"$GPGSV,1,1,04,32,84,305,16,25,63,047,31,28,54,311,18,03,06,327,18,8*6D"
1451,203110041,0,0,GSV,1,0,"$GLGSV,2,1,05,72,71,312,28,74,68,333,32,73,31,037,28,65,19,330,33,1*7B"
1452,203110828,0,0,GSV,1,0,"$GLGSV,2,2,05,83,03,072,27,1*45"
1453,203111614,0,0,GSV,1,0,"$GAGSV,1,1,01,02,15,042,35,7*44"
1454,203112447,0,0,GSV,1,0,"$GAGSV,1,1,01,02,15,042,23,1*45"
1455,203113138,0,0,GSV,1,0,"$GBGSV,1,1,01,16,,,27,1*75"
1456,203113629,0,0,GSV,1,0,"$GBGSV,1,1,00,4*73"
1457,203115350,0,0,RMC,1,0,"$GNRMC,111244.000,A,3629.0030,N,13634.4379,E,0.24,182.99,170726,,,A,V*06"
1459,203116500,0,0,VTG,1,0,"$GNVTG,182.99,T,,M,0.24,N,0.45,K,A*2F"
1461,203117245,0,0,MSG,1,0,"$PAIRMSG,90,111244.000,1*5A"
1462,203118012,0,0,MSG,1,0,"$PAIRMSG,91,111244.000,1,0*47"
1705,204017235,0,0,GGA,1,0,"$GNGGA,111245.000,3629.0030,N,13634.4380,E,1,15,1.79,47.5,M,34.9,M,,*42"
1707,204018732,0,0,GLL,1,0,"$GNGLL,3629.0030,N,13634.4380,E,111245.000,A,A*44"
1708,204020065,0,0,GSA,1,0,"$GNGSA,A,3,32,25,28,12,03,,,,,,,,2.03,1.79,0.96,1*0C"
1710,204021412,0,0,GSA,1,0,"$GNGSA,A,3,72,74,73,65,,,,,,,,,2.03,1.79,0.96,2*02"
1712,204022618,0,0,GSA,1,0,"$GNGSA,A,3,02,,,,,,,,,,,,2.03,1.79,0.96,3*00"
1714,204023689,0,0,GSA,1,0,"$GNGSA,A,3,,,,,,,,,,,,,2.03,1.79,0.96,4*05"
1716,204025483,0,0,GSV,1,0,"$GPGSV,2,1,08,32,84,305,21,25,63,047,33,28,54,311,34,29,31,129,12,1*69"
1717,204027289,0,0,GSV,1,0,"$GPGSV,2,2,08,31,29,286,17,12,25,045,20,10,24,206,18,03,06,327,23,1*60"
1742,204124997,0,0,GSV,1,0,"$GPGSV,1,1,04,32,84,305,16,25,63,047,31,28,54,311,17,03,06,327,18,8*62"
1743,204126807,0,0,GSV,1,0,"$GLGSV,2,1,05,72,71,312,28,74,68,333,32,73,31,037,28,65,19,330,33,1*7B"
1744,204127612,0,0,GSV,1,0,"$GLGSV,2,2,05,83,03,072,26,1*44"
1745,204128415,0,0,GSV,1,0,"$GAGSV,1,1,01,02,15,042,35,7*44"
1746,204129229,0,0,GSV,1,0,"$GAGSV,1,1,01,02,15,042,23,1*45"
1747,204129908,0,0,GSV,1,0,"$GBGSV,1,1,01,16,,,27,1*75"
1748,204130399,0,0,GSV,1,0,"$GBGSV,1,1,00,4*73"
1749,204132133,0,0,RMC,1,0,"$GNRMC,111245.000,A,3629.0030,N,13634.4380,E,0.32,182.99,170726,,,A,V*06"
1751,204133281,0,0,VTG,1,0,"$GNVTG,182.99,T,,M,0.32,N,0.60,K,A*2F"
1753,204134057,0,0,MSG,1,0,"$PAIRMSG,90,111245.000,1*5B"
1754,204134855,0,0,MSG,1,0,"$PAIRMSG,91,111245.000,1,0*46"
1982,205011082,0,0,GGA,1,0,"$GNGGA,111246.000,3629.0029,N,13634.4380,E,1,15,1.79,47.5,M,34.9,M,,*49"
1984,205012587,0,0,GLL,1,0,"$GNGLL,3629.0029,N,13634.4380,E,111246.000,A,A*4F"
1985,205013911,0,0,GSA,1,0,"$GNGSA,A,3,32,25,28,12,03,,,,,,,,2.03,1.79,0.96,1*0C"
1987,205015243,0,0,GSA,1,0,"$GNGSA,A,3,72,74,73,65,,,,,,,,,2.03,1.79,0.96,2*02"
1989,205016529,0,0,GSA,1,0,"$GNGSA,A,3,02,,,,,,,,,,,,2.03,1.79,0.96,3*00"
1991,205017688,0,0,GSA,1,0,"$GNGSA,A,3,,,,,,,,,,,,,2.03,1.79,0.96,4*05"
1993,205019418,0,0,GSV,1,0,"$GPGSV,2,1,08,32,84,305,21,25,63,047,33,28,54,311,34,29,31,129,11,1*6A"
1994,205021183,0,0,GSV,1,0,"$GPGSV,2,2,08,31,29,286,18,12,25,045,21,10,24,206,18,03,06,326,23,1*6F"
2019,205123845,0,0,GSV,1,0,"$GPGSV,1,1,04,32,84,305,15,25,63,047,31,28,54,311,17,03,06,326,18,8*60"
2020,205125679,0,0,GSV,1,0,"$GLGSV,2,1,05,72,71,312,28,74,68,333,32,73,31,037,29,65,19,330,33,1*7A"
2021,205126504,0,0,GSV,1,0,"$GLGSV,2,2,05,83,03,072,26,1*44"
2022,205127294,0,0,GSV,1,0,"$GAGSV,1,1,01,02,15,042,35,7*44"
2023,205128103,0,0,GSV,1,0,"$GAGSV,1,1,01,02,15,042,23,1*45"
2024,205128813,0,0,GSV,1,0,"$GBGSV,1,1,01,16,,,27,1*75"
2025,205129307,0,0,GSV,1,0,"$GBGSV,1,1,00,4*73"
2026,205131024,0,0,RMC,1,0,"$GNRMC,111246.000,A,3629.0029,N,13634.4380,E,0.20,182.99,170726,,,A,V*0E"
2028,205132184,0,0,VTG,1,0,"$GNVTG,182.99,T,,M,0.20,N,0.37,K,A*2E"
2030,205132927,0,0,MSG,1,0,"$PAIRMSG,90,111246.000,1*58"
2031,205133666,0,0,MSG,1,0,"$PAIRMSG,91,111246.000,1,0*45"
2250,205978900,0,0,GGA,1,0,"$GNGGA,111247.000,3629.0029,N,13634.4381,E,1,15,1.79,47.5,M,34.9,M,,*49"
2276,206068608,0,0,GLL,1,0,"$GNGLL,3629.0029,N,13634.4381,E,111247.000,A,A*4F"
2277,206070014,0,0,GSA,1,0,"$GNGSA,A,3,32,25,28,12,03,,,,,,,,2.03,1.79,0.96,1*0C"
2279,206071403,0,0,GSA,1,0,"$GNGSA,A,3,72,74,73,65,,,,,,,,,2.03,1.79,0.96,2*02"
2281,206072594,0,0,GSA,1,0,"$GNGSA,A,3,02,,,,,,,,,,,,2.03,1.79,0.96,3*00"
2283,206073659,0,0,GSA,1,0,"$GNGSA,A,3,,,,,,,,,,,,,2.03,1.79,0.96,4*05"
2285,206075459,0,0,GSV,1,0,"$GPGSV,2,1,08,32,84,305,22,25,63,047,33,28,54,311,34,29,31,129,11,1*69"
2286,206077196,0,0,GSV,1,0,"$GPGSV,2,2,08,31,29,286,19,12,25,045,22,10,24,206,18,03,06,326,23,1*6D"
2287,206078888,0,0,GSV,1,0,"$GPGSV,1,1,04,32,84,305,14,25,63,047,31,28,54,311,17,03,06,326,18,8*61"
2288,206080627,0,0,GSV,1,0,"$GLGSV,2,1,05,72,71,312,28,74,68,333,32,73,31,037,29,65,19,330,33,1*7A"
2313,206179848,0,0,GSV,1,0,"$GLGSV,2,2,05,83,03,072,26,1*44"
2314,206180784,0,0,GSV,1,0,"$GAGSV,1,1,01,02,15,042,35,7*44"
2315,206181579,0,0,GSV,1,0,"$GAGSV,1,1,01,02,15,042,24,1*42"
2316,206182287,0,0,GSV,1,0,"$GBGSV,1,1,01,16,,,27,1*75"
2317,206182780,0,0,GSV,1,0,"$GBGSV,1,1,00,4*73"
2318,206184511,0,0,RMC,1,0,"$GNRMC,111247.000,A,3629.0029,N,13634.4381,E,0.17,182.99,170726,,,A,V*0A"
2320,206185659,0,0,VTG,1,0,"$GNVTG,182.99,T,,M,0.17,N,0.31,K,A*2C"
2322,206186411,0,0,MSG,1,0,"$PAIRMSG,90,111247.000,1*59"
2323,206187181,0,0,MSG,1,0,"$PAIRMSG,91,111247.000,1,0*44"
2542,207020940,0,0,GGA,1,0,"$GNGGA,111248.000,3629.0029,N,13634.4381,E,1,15,1.79,47.5,M,34.9,M,,*46"
2544,207022435,0,0,GLL,1,0,"$GNGLL,3629.0029,N,13634.4381,E,111248.000,A,A*40"
2545,207023758,0,0,GSA,1,0,"$GNGSA,A,3,32,25,28,12,03,,,,,,,,2.03,1.79,0.96,1*0C"
2547,207025072,0,0,GSA,1,0,"$GNGSA,A,3,72,74,73,65,,,,,,,,,2.03,1.79,0.96,2*02"
2549,207026311,0,0,GSA,1,0,"$GNGSA,A,3,02,,,,,,,,,,,,2.03,1.79,0.96,3*00"
2551,207027442,0,0,GSA,1,0,"$GNGSA,A,3,,,,,,,,,,,,,2.03,1.79,0.96,4*05"
2553,207029246,0,0,GSV,1,0,"$GPGSV,2,1,08,32,84,305,22,25,63,047,33,28,54,311,34,29,31,129,12,1*6A"
2554,207030995,0,0,GSV,1,0,"$GPGSV,2,2,08,31,29,286,19,12,25,045,22,10,24,206,18,03,06,326,23,1*6D"
2579,207132662,0,0,GSV,1,0,"$GPGSV,1,1,04,32,84,305,15,25,63,047,31,28,54,311,17,03,06,326,18,8*60"
2580,207134503,0,0,GSV,1,0,"$GLGSV,2,1,05,72,71,312,27,74,68,333,32,73,31,037,29,65,19,330,33,1*75"
2581,207135329,0,0,GSV,1,0,"$GLGSV,2,2,05,83,03,072,26,1*44"
2582,207136134,0,0,GSV,1,0,"$GAGSV,1,1,01,02,15,042,35,7*44"
2583,207136947,0,0,GSV,1,0,"$GAGSV,1,1,01,02,15,042,24,1*42"
2584,207137653,0,0,GSV,1,0,"$GBGSV,1,1,01,16,,,27,1*75"
2585,207138142,0,0,GSV,1,0,"$GBGSV,1,1,00,4*73"
2586,207139869,0,0,RMC,1,0,"$GNRMC,111248.000,A,3629.0029,N,13634.4381,E,0.14,182.99,170726,,,A,V*06"
2588,207141071,0,0,VTG,1,0,"$GNVTG,182.99,T,,M,0.14,N,0.25,K,A*2A"
2590,207142232,0,0,MSG,1,0,"$PAIRMSG,90,111248.000,1*56"
2591,207143210,0,0,MSG,1,0,"$PAIRMSG,91,111248.000,1,0*4B"
2810,208005853,0,0,GGA,1,0,"$GNGGA,111249.000,3629.0029,N,13634.4381,E,1,15,1.79,47.5,M,34.9,M,,*47"
2812,208007448,0,0,GLL,1,0,"$GNGLL,3629.0029,N,13634.4381,E,111249.000,A,A*41"
2813,208008798,0,0,GSA,1,0,"$GNGSA,A,3,32,25,28,12,03,,,,,,,,2.03,1.79,0.96,1*0C"
2815,208010165,0,0,GSA,1,0,"$GNGSA,A,3,72,74,73,65,,,,,,,,,2.03,1.79,0.96,2*02"
2817,208011378,0,0,GSA,1,0,"$GNGSA,A,3,02,,,,,,,,,,,,2.03,1.79,0.96,3*00"
2819,208012514,0,0,GSA,1,0,"$GNGSA,A,3,,,,,,,,,,,,,2.03,1.79,0.96,4*05"
2821,208014212,0,0,GSV,1,0,"$GPGSV,2,1,08,32,84,305,23,25,63,047,33,28,54,311,34,29,31,129,,1*68"
2822,208015973,0,0,GSV,1,0,"$GPGSV,2,2,08,31,29,286,19,12,25,045,22,10,24,206,18,03,06,326,23,1*6D"
2847,208113444,0,0,GSV,1,0,"$GPGSV,1,1,04,32,84,305,16,25,63,047,31,28,54,311,17,03,06,326,18,8*63"
2848,208115272,0,0,GSV,1,0,"$GLGSV,2,1,05,72,71,312,27,74,68,333,32,73,31,037,29,65,19,330,33,1*75"
2849,208116073,0,0,GSV,1,0,"$GLGSV,2,2,05,83,03,072,26,1*44"
2850,208116866,0,0,GSV,1,0,"$GAGSV,1,1,01,02,15,042,35,7*44"
2851,208117668,0,0,GSV,1,0,"$GAGSV,1,1,01,02,15,042,23,1*45"
2852,208118386,0,0,GSV,1,0,"$GBGSV,1,1,01,16,,,27,1*75"
2853,208118899,0,0,GSV,1,0,"$GBGSV,1,1,00,4*73"
2854,208120612,0,0,RMC,1,0,"$GNRMC,111249.000,A,3629.0029,N,13634.4381,E,0.06,182.99,170726,,,A,V*04"
2856,208121761,0,0,VTG,1,0,"$GNVTG,182.99,T,,M,0.06,N,0.11,K,A*2E"
2858,208122587,0,0,MSG,1,0,"$PAIRMSG,90,111249.000,1*57"
2859,208123335,0,0,MSG,1,0,"$PAIRMSG,91,111249.000,1,0*4A"
3102,209051269,0,0,GGA,1,0,"$GNGGA,111250.000,3629.0029,N,13634.4381,E,1,15,1.79,47.5,M,34.9,M,,*4F"
3104,209052772,0,0,GLL,1,0,"$GNGLL,3629.0029,N,13634.4381,E,111250.000,A,A*49"
3105,209054100,0,0,GSA,1,0,"$GNGSA,A,3,32,25,28,12,03,,,,,,,,2.03,1.79,0.95,1*0F"
3107,209055435,0,0,GSA,1,0,"$GNGSA,A,3,72,74,73,65,,,,,,,,,2.03,1.79,0.95,2*01"
3109,209056657,0,0,GSA,1,0,"$GNGSA,A,3,02,,,,,,,,,,,,2.03,1.79,0.95,3*03"
3111,209057795,0,0,GSA,1,0,"$GNGSA,A,3,,,,,,,,,,,,,2.03,1.79,0.95,4*06"
3113,209059543,0,0,GSV,1,0,"$GPGSV,2,1,08,32,84,305,23,25,63,047,33,28,54,311,34,29,31,129,,1*68"
3114,209061276,0,0,GSV,1,0,"$GPGSV,2,2,08,31,29,286,19,12,25,045,23,10,24,206,18,03,06,326,23,1*6C"
3139,209160291,0,0,GSV,1,0,"$GPGSV,1,1,04,32,84,305,16,25,63,047,31,28,54,311,17,03,06,326,18,8*63"
3140,209162105,0,0,GSV,1,0,"$GLGSV,2,1,05,72,71,312,27,74,68,333,32,73,31,037,29,65,19,330,33,1*75"
3141,209162901,0,0,GSV,1,0,"$GLGSV,2,2,05,83,03,072,27,1*45"
3142,209163706,0,0,GSV,1,0,"$GAGSV,1,1,01,02,15,042,35,7*44"
3143,209164523,0,0,GSV,1,0,"$GAGSV,1,1,01,02,15,042,23,1*45"
3144,209165213,0,0,GSV,1,0,"$GBGSV,1,1,01,16,,,27,1*75"
3145,209165703,0,0,GSV,1,0,"$GBGSV,1,1,00,4*73"
3146,209167430,0,0,RMC,1,0,"$GNRMC,111250.000,A,3629.0029,N,13634.4381,E,0.08,182.99,170726,,,A,V*02"
3148,209168574,0,0,VTG,1,0,"$GNVTG,182.99,T,,M,0.08,N,0.14,K,A*25"
3150,209169318,0,0,MSG,1,0,"$PAIRMSG,90,111250.000,1*5F"
3151,209170092,0,0,MSG,1,0,"$PAIRMSG,91,111250.000,1,0*42"
3376,210029127,0,0,GGA,1,0,"$GNGGA,111251.000,3629.0029,N,13634.4382,E,1,15,1.79,47.5,M,34.9,M,,*4D"
3378,210030622,0,0,GLL,1,0,"$GNGLL,3629.0029,N,13634.4382,E,111251.000,A,A*4B"
3379,210031950,0,0,GSA,1,0,"$GNGSA,A,3,32,25,28,12,03,,,,,,,,2.03,1.79,0.95,1*0F"
3381,210033310,0,0,GSA,1,0,"$GNGSA,A,3,72,74,73,65,,,,,,,,,2.03,1.79,0.95,2*01"
3383,210034508,0,0,GSA,1,0,"$GNGSA,A,3,02,,,,,,,,,,,,2.03,1.79,0.95,3*03"
3385,210035581,0,0,GSA,1,0,"$GNGSA,A,3,,,,,,,,,,,,,2.03,1.79,0.95,4*06"
3387,210037334,0,0,GSV,1,0,"$GPGSV,2,1,08,32,84,305,23,25,63,047,33,28,54,311,34,29,31,129,,1*68"
3388,210039127,0,0,GSV,1,0,"$GPGSV,2,2,08,31,29,286,19,12,25,045,24,10,24,206,18,03,06,326,23,1*6B"
3413,210141744,0,0,GSV,1,0,"$GPGSV,1,1,04,32,84,305,17,25,63,047,31,28,54,311,17,03,06,326,18,8*62"
3414,210143517,0,0,GSV,1,0,"$GLGSV,2,1,07,72,71,312,28,74,68,333,32,71,48,162,,75,34,249,,1*7F"
3415,210144937,0,0,GSV,1,0,"$GLGSV,2,2,07,73,31,037,29,65,19,330,33,83,03,072,28,1*4A"
3416,210145997,0,0,GSV,1,0,"$GAGSV,1,1,02,02,15,042,35,21,06,216,,7*77"
3417,210146785,0,0,GSV,1,0,"$GAGSV,1,1,01,02,15,042,23,1*45"
3418,210147484,0,0,GSV,1,0,"$GBGSV,1,1,01,16,,,27,1*75"
3419,210147988,0,0,GSV,1,0,"$GBGSV,1,1,00,4*73"
3420,210149710,0,0,RMC,1,0,"$GNRMC,111251.000,A,3629.0029,N,13634.4382,E,0.04,182.99,170726,,,A,V*0C"
3422,210150891,0,0,VTG,1,0,"$GNVTG,182.99,T,,M,0.04,N,0.08,K,A*24"
3424,210151735,0,0,MSG,1,0,"$PAIRMSG,90,111251.000,1*5E"
3425,210152495,0,0,MSG,1,0,"$PAIRMSG,91,111251.000,1,0*43"
3654,211038505,0,0,GGA,1,0,"$GNGGA,111252.000,3629.0029,N,13634.4382,E,1,15,1.79,47.5,M,34.9,M,,*4E"
3656,211039989,0,0,GLL,1,0,"$GNGLL,3629.0029,N,13634.4382,E,111252.000,A,A*48"
3657,211041330,0,0,GSA,1,0,"$GNGSA,A,3,32,25,28,12,03,,,,,,,,2.03,1.79,0.95,1*0F"
3659,211042654,0,0,GSA,1,0,"$GNGSA,A,3,72,74,73,65,,,,,,,,,2.03,1.79,0.95,2*01"
3661,211043915,0,0,GSA,1,0,"$GNGSA,A,3,02,,,,,,,,,,,,2.03,1.79,0.95,3*03"
3663,211045087,0,0,GSA,1,0,"$GNGSA,A,3,,,,,,,,,,,,,2.03,1.79,0.95,4*06"
3665,211046873,0,0,GSV,1,0,"$GPGSV,2,1,08,32,84,305,24,25,63,047,33,28,54,311,34,29,31,129,,1*6F"
3666,211048648,0,0,GSV,1,0,"$GPGSV,2,2,08,31,29,286,19,12,25,045,25,10,24,206,18,03,06,326,23,1*6A"
3691,211156103,0,0,GSV,1,0,"$GPGSV,1,1,04,32,84,305,17,25,63,047,31,28,54,311,17,03,06,326,18,8*62"
3692,211157909,0,0,GSV,1,0,"$GLGSV,2,1,06,72,71,312,28,74,68,333,32,73,31,037,29,65,19,330,33,1*79"
3693,211158964,0,0,GSV,1,0,"$GLGSV,2,2,06,83,03,072,29,82,02,024,,1*76"
3694,211160047,0,0,GSV,1,0,"$GAGSV,1,1,02,02,15,042,35,21,06,216,,7*77"
3695,211160844,0,0,GSV,1,0,"$GAGSV,1,1,01,02,15,042,23,1*45"
3696,211161512,0,0,GSV,1,0,"$GBGSV,1,1,01,16,,,27,1*75"
3697,211161995,0,0,GSV,1,0,"$GBGSV,1,1,00,4*73"
3698,211163761,0,0,RMC,1,0,"$GNRMC,111252.000,A,3629.0029,N,13634.4382,E,0.04,182.99,170726,,,A,V*0F"
3700,211164890,0,0,VTG,1,0,"$GNVTG,182.99,T,,M,0.04,N,0.08,K,A*24"
3702,211165758,0,0,MSG,1,0,"$PAIRMSG,90,111252.000,1*5D"
3703,211166519,0,0,MSG,1,0,"$PAIRMSG,91,111252.000,1,0*40"
3922,211993793,0,0,GGA,1,0,"$GNGGA,111253.000,3629.0028,N,13634.4382,E,1,15,1.79,47.5,M,34.9,M,,*4E"
3924,211995382,0,0,GLL,1,0,"$GNGLL,3629.0028,N,13634.4382,E,111253.000,A,A*48"
3925,211996686,0,0,GSA,1,0,"$GNGSA,A,3,32,25,28,12,03,,,,,,,,2.03,1.79,0.95,1*0F"
3927,211997992,0,0,GSA,1,0,"$GNGSA,A,3,72,74,73,65,,,,,,,,,2.03,1.79,0.95,2*01"
3929,211999147,0,0,GSA,1,0,"$GNGSA,A,3,02,,,,,,,,,,,,2.03,1.79,0.95,3*03"
3931,212000271,0,0,GSA,1,0,"$GNGSA,A,3,,,,,,,,,,,,,2.03,1.79,0.95,4*06"
3957,212092281,0,0,GSV,1,0,"$GPGSV,2,1,08,32,84,305,24,25,63,047,33,28,54,311,34,29,31,129,,1*6F"
3958,212094079,0,0,GSV,1,0,"$GPGSV,2,2,08,31,29,286,19,12,25,045,25,10,22,205,18,03,06,326,23,1*6F"
3959,212095781,0,0,GSV,1,0,"$GPGSV,1,1,04,32,84,305,17,25,63,047,31,28,54,311,18,03,06,326,18,8*6D"
3960,212097494,0,0,GSV,1,0,"$GLGSV,2,1,06,72,71,312,28,74,68,333,32,73,31,037,29,65,19,330,33,1*79"
3961,212098588,0,0,GSV,1,0,"$GLGSV,2,2,06,83,03,072,30,82,02,024,26,1*7A"
3962,212099676,0,0,GSV,1,0,"$GAGSV,1,1,02,02,15,042,35,21,06,216,,7*77"
3963,212100491,0,0,GSV,1,0,"$GAGSV,1,1,01,02,15,042,23,1*45"
3964,212101159,0,0,GSV,1,0,"$GBGSV,1,1,01,16,,,27,1*75"
3965,212101647,0,0,GSV,1,0,"$GBGSV,1,1,00,4*73"
3966,212103380,0,0,RMC,1,0,"$GNRMC,111253.000,A,3629.0028,N,13634.4382,E,0.07,182.99,170726,,,A,V*0C"
3992,212208473,0,0,VTG,1,0,"$GNVTG,182.99,T,,M,0.07,N,0.12,K,A*2C"
3994,212209410,0,0,MSG,1,0,"$PAIRMSG,90,111253.000,1*5C"
3995,212210182,0,0,MSG,1,0,"$PAIRMSG,91,111253.000,1,0*41"
4214,213045667,0,0,GGA,1,0,"$GNGGA,111254.000,3629.0028,N,13634.4382,E,1,15,1.79,47.5,M,34.9,M,,*49"
4216,213047216,0,0,GLL,1,0,"$GNGLL,3629.0028,N,13634.4382,E,111254.000,A,A*4F"
4217,213048591,0,0,GSA,1,0,"$GNGSA,A,3,32,25,28,12,03,,,,,,,,2.03,1.79,0.95,1*0F"
4219,213049983,0,0,GSA,1,0,"$GNGSA,A,3,72,74,73,65,,,,,,,,,2.03,1.79,0.95,2*01"
4221,213051245,0,0,GSA,1,0,"$GNGSA,A,3,02,,,,,,,,,,,,2.03,1.79,0.95,3*03"
4223,213052322,0,0,GSA,1,0,"$GNGSA,A,3,,,,,,,,,,,,,2.03,1.79,0.95,4*06"
4225,213054067,0,0,GSV,1,0,"$GPGSV,2,1,08,32,84,305,25,25,63,047,34,28,54,311,34,29,31,129,,1*69"
4226,213055817,0,0,GSV,1,0,"$GPGSV,2,2,08,31,29,286,19,12,25,045,26,10,22,205,18,03,06,326,23,1*6C"
4251,213158228,0,0,GSV,1,0,"$GPGSV,1,1,04,32,84,305,16,25,63,047,31,28,54,311,18,03,06,326,18,8*6C"
4252,213160036,0,0,GSV,1,0,"$GLGSV,2,1,06,72,71,312,28,74,68,333,32,73,31,037,30,65,19,330,33,1*71"
4253,213161152,0,0,GSV,1,0,"$GLGSV,2,2,06,83,03,072,32,82,02,024,28,1*76"
4254,213162229,0,0,GSV,1,0,"$GAGSV,1,1,02,02,15,042,35,21,06,216,,7*77"
4255,213163021,0,0,GSV,1,0,"$GAGSV,1,1,01,02,15,042,23,1*45"
4256,213163689,0,0,GSV,1,0,"$GBGSV,1,1,01,16,,,27,1*75"
4257,213164184,0,0,GSV,1,0,"$GBGSV,1,1,00,4*73"
4258,213165956,0,0,RMC,1,0,"$GNRMC,111254.000,A,3629.0028,N,13634.4382,E,0.05,182.99,170726,,,A,V*09"
4260,213167077,0,0,VTG,1,0,"$GNVTG,182.99,T,,M,0.05,N,0.10,K,A*2C"
4262,213167911,0,0,MSG,1,0,"$PAIRMSG,90,111254.000,1*5B"
4263,213168654,0,0,MSG,1,0,"$PAIRMSG,91,111254.000,1,0*46"
4482,214016479,0,0,GGA,1,0,"$GNGGA,111255.000,3629.0028,N,13634.4382,E,1,15,1.79,47.5,M,34.9,M,,*48"
4484,214018019,0,0,GLL,1,0,"$GNGLL,3629.0028,N,13634.4382,E,111255.000,A,A*4E"
4485,214019356,0,0,GSA,1,0,"$GNGSA,A,3,32,25,28,12,03,,,,,,,,2.03,1.79,0.95,1*0F"
4487,214020654,0,0,GSA,1,0,"$GNGSA,A,3,72,74,73,65,,,,,,,,,2.03,1.79,0.95,2*01"
4489,214021840,0,0,GSA,1,0,"$GNGSA,A,3,02,,,,,,,,,,,,2.03,1.79,0.95,3*03"
4491,214023011,0,0,GSA,1,0,"$GNGSA,A,3,,,,,,,,,,,,,2.03,1.79,0.95,4*06"
4493,214024748,0,0,GSV,1,0,"$GPGSV,2,1,08,32,84,305,25,25,63,047,34,28,54,311,34,29,31,129,,1*69"
4494,214026509,0,0,GSV,1,0,"$GPGSV,2,2,08,31,29,286,20,12,24,045,26,10,22,205,18,03,06,326,23,1*67"
4519,214131018,0,0,GSV,1,0,"$GPGSV,1,1,04,32,84,305,15,25,63,047,31,28,54,311,18,03,06,326,18,8*6F"
4520,214132820,0,0,GSV,1,0,"$GLGSV,2,1,06,72,71,312,28,74,68,333,32,73,31,037,31,65,19,330,33,1*70"
4521,214133936,0,0,GSV,1,0,"$GLGSV,2,2,06,83,03,072,33,82,02,024,28,1*77"
4522,214135005,0,0,GSV,1,0,"$GAGSV,1,1,02,02,15,042,35,21,06,216,,7*77"
4523,214135826,0,0,GSV,1,0,"$GAGSV,1,1,01,02,15,042,23,1*45"
4524,214136503,0,0,GSV,1,0,"$GBGSV,1,1,01,16,,,27,1*75"
4525,214136990,0,0,GSV,1,0,"$GBGSV,1,1,00,4*73"
4526,214138741,0,0,RMC,1,0,"$GNRMC,111255.000,A,3629.0028,N,13634.4382,E,0.02,182.99,170726,,,A,V*0F"
4528,214139881,0,0,VTG,1,0,"$GNVTG,182.99,T,,M,0.02,N,0.04,K,A*2E"
4530,214140624,0,0,MSG,1,0,"$PAIRMSG,90,111255.000,1*5A"
4531,214141413,0,0,MSG,1,0,"$PAIRMSG,91,111255.000,1,0*47"
4756,215005151,0,0,GGA,1,0,"$GNGGA,111256.000,3629.0028,N,13634.4382,E,1,15,1.79,47.5,M,34.9,M,,*4B"
4758,215006703,0,0,GLL,1,0,"$GNGLL,3629.0028,N,13634.4382,E,111256.000,A,A*4D"
4759,215008042,0,0,GSA,1,0,"$GNGSA,A,3,32,25,28,12,03,,,,,,,,2.03,1.79,0.95,1*0F"
4761,215009372,0,0,GSA,1,0,"$GNGSA,A,3,72,74,73,65,,,,,,,,,2.03,1.79,0.95,2*01"
4763,215010598,0,0,GSA,1,0,"$GNGSA,A,3,02,,,,,,,,,,,,2.03,1.79,0.95,3*03"
4765,215011751,0,0,GSA,1,0,"$GNGSA,A,3,,,,,,,,,,,,,2.03,1.79,0.95,4*06"
4767,215013488,0,0,GSV,1,0,"$GPGSV,2,1,08,32,84,305,25,25,63,047,34,28,54,311,34,29,31,129,,1*69"
4768,215015234,0,0,GSV,1,0,"$GPGSV,2,2,08,31,29,286,21,12,24,045,27,10,22,205,18,03,06,326,23,1*67"
4793,215116698,0,0,GSV,1,0,"$GPGSV,1,1,04,32,84,305,15,25,63,047,31,28,54,311,18,03,06,326,18,8*6F"
4794,215118517,0,0,GSV,1,0,"$GLGSV,2,1,06,72,71,312,28,74,68,333,32,73,31,037,31,65,19,330,33,1*70"
4795,215119635,0,0,GSV,1,0,"$GLGSV,2,2,06,83,03,072,34,82,02,024,28,1*70"
4796,215120674,0,0,GSV,1,0,"$GAGSV,1,1,02,02,15,042,35,21,06,216,,7*77"
4797,215121500,0,0,GSV,1,0,"$GAGSV,1,1,01,02,15,042,23,1*45"
4798,215122203,0,0,GSV,1,0,"$GBGSV,1,1,01,16,,,26,1*74"
4799,215122699,0,0,GSV,1,0,"$GBGSV,1,1,00,4*73"
4800,215124422,0,0,RMC,1,0,"$GNRMC,111256.000,A,3629.0028,N,13634.4382,E,0.03,182.99,170726,,,A,V*0D"
4802,215125560,0,0,VTG,1,0,"$GNVTG,182.99,T,,M,0.03,N,0.06,K,A*2D"
4804,215126312,0,0,MSG,1,0,"$PAIRMSG,90,111256.000,1*59"
4805,215127061,0,0,MSG,1,0,"$PAIRMSG,91,111256.000,1,0*44"
5040,216033711,0,0,GGA,1,0,"$GNGGA,111257.000,3629.0028,N,13634.4382,E,1,15,1.79,47.5,M,34.9,M,,*4A"
5042,216035204,0,0,GLL,1,0,"$GNGLL,3629.0028,N,13634.4382,E,111257.000,A,A*4C"
5043,216036588,0,0,GSA,1,0,"$GNGSA,A,3,32,25,28,12,03,,,,,,,,2.03,1.79,0.95,1*0F"
5045,216037949,0,0,GSA,1,0,"$GNGSA,A,3,72,74,73,65,,,,,,,,,2.03,1.79,0.95,2*01"
5047,216039132,0,0,GSA,1,0,"$GNGSA,A,3,02,,,,,,,,,,,,2.03,1.79,0.95,3*03"
5049,216040324,0,0,GSA,1,0,"$GNGSA,A,3,,,,,,,,,,,,,2.03,1.79,0.95,4*06"
5051,216041989,0,0,GSV,1,0,"$GPGSV,2,1,08,32,84,305,25,25,63,047,34,28,54,311,34,29,31,129,,1*69"
5052,216043765,0,0,GSV,1,0,"$GPGSV,2,2,08,31,29,286,21,12,24,045,28,10,22,205,18,03,06,326,23,1*68"
5077,216149923,0,0,GSV,1,0,"$GPGSV,1,1,04,32,84,305,15,25,63,047,31,28,54,311,17,03,06,326,18,8*60"
5078,216151746,0,0,GSV,1,0,"$GLGSV,2,1,06,72,71,312,27,74,68,333,33,73,31,037,31,65,19,330,33,1*7E"
5079,216152878,0,0,GSV,1,0,"$GLGSV,2,2,06,83,03,072,35,82,02,024,28,1*71"
5080,216153967,0,0,GSV,1,0,"$GAGSV,1,1,02,02,15,042,35,21,06,216,,7*77"
5081,216154772,0,0,GSV,1,0,"$GAGSV,1,1,01,02,15,042,23,1*45"
5082,216155453,0,0,GSV,1,0,"$GBGSV,1,1,01,16,,,26,1*74"
5083,216155978,0,0,GSV,1,0,"$GBGSV,1,1,00,4*73"
5084,216157747,0,0,RMC,1,0,"$GNRMC,111257.000,A,3629.0028,N,13634.4382,E,0.05,182.99,170726,,,A,V*0A"
5086,216159095,0,0,VTG,1,0,"$GNVTG,182.99,T,,M,0.05,N,0.10,K,A*2C"
5088,216159954,0,0,MSG,1,0,"$PAIRMSG,90,111257.000,1*58"
5089,216160699,0,0,MSG,1,0,"$PAIRMSG,91,111257.000,1,0*45"
5302,216980074,0,0,GGA,1,0,"$GNGGA,111258.000,3629.0028,N,13634.4382,E,1,15,1.79,47.5,M,34.9,M,,*45"
5328,217073496,0,0,GLL,1,0,"$GNGLL,3629.0028,N,13634.4382,E,111258.000,A,A*43"
5329,217074896,0,0,GSA,1,0,"$GNGSA,A,3,32,25,28,12,03,,,,,,,,2.03,1.79,0.95,1*0F"
5331,217076280,0,0,GSA,1,0,"$GNGSA,A,3,72,74,73,65,,,,,,,,,2.03,1.79,0.95,2*01"
5333,217077526,0,0,GSA,1,0,"$GNGSA,A,3,02,,,,,,,,,,,,2.03,1.79,0.95,3*03"
5335,217078761,0,0,GSA,1,0,"$GNGSA,A,3,,,,,,,,,,,,,2.03,1.79,0.95,4*06"
5337,217080481,0,0,GSV,1,0,"$GPGSV,2,1,08,32,84,305,26,25,63,047,34,28,54,311,34,29,31,129,,1*6A"
5338,217082269,0,0,GSV,1,0,"$GPGSV,2,2,08,31,29,286,22,12,24,045,28,10,22,205,18,03,06,326,23,1*6B"
5339,217083973,0,0,GSV,1,0,"$GPGSV,1,1,04,32,84,305,15,25,63,047,31,28,54,311,17,03,06,326,18,8*60"
5340,217085701,0,0,GSV,1,0,"$GLGSV,2,1,06,72,71,312,27,74,68,333,33,73,31,037,31,65,19,330,33,1*7E"
5365,217182922,0,0,GSV,1,0,"$GLGSV,2,2,06,83,03,072,36,82,02,024,28,1*72"
5366,217183840,0,0,GSV,1,0,"$GAGSV,1,1,01,02,15,042,35,7*44"
5367,217184645,0,0,GSV,1,0,"$GAGSV,1,1,01,02,15,042,23,1*45"
5368,217185346,0,0,GSV,1,0,"$GBGSV,1,1,01,16,,,27,1*75"
5369,217185840,0,0,GSV,1,0,"$GBGSV,1,1,00,4*73"
5370,217187568,0,0,RMC,1,0,"$GNRMC,111258.000,A,3629.0028,N,13634.4382,E,0.09,182.99,170726,,,A,V*09"
5372,217188707,0,0,VTG,1,0,"$GNVTG,182.99,T,,M,0.09,N,0.16,K,A*26"
5374,217189461,0,0,MSG,1,0,"$PAIRMSG,90,111258.000,1*57"
5375,217190226,0,0,MSG,1,0,"$PAIRMSG,91,111258.000,1,0*4A"
5589,218004095,0,0,GGA,1,0,"$GNGGA,111259.000,3629.0028,N,13634.4382,E,1,15,1.79,47.5,M,34.9,M,,*44"
5591,218005655,0,0,GLL,1,0,"$GNGLL,3629.0028,N,13634.4382,E,111259.000,A,A*42"
5592,218006994,0,0,GSA,1,0,"$GNGSA,A,3,32,25,28,12,03,,,,,,,,2.03,1.79,0.95,1*0F"
5594,218008335,0,0,GSA,1,0,"$GNGSA,A,3,72,74,73,65,,,,,,,,,2.03,1.79,0.95,2*01"
5596,218009547,0,0,GSA,1,0,"$GNGSA,A,3,02,,,,,,,,,,,,2.03,1.79,0.95,3*03"
5598,218010624,0,0,GSA,1,0,"$GNGSA,A,3,,,,,,,,,,,,,2.03,1.79,0.95,4*06"
5600,218012364,0,0,GSV,1,0,"$GPGSV,2,1,08,32,84,305,26,25,63,047,34,28,54,311,34,29,31,129,,1*6A"
5601,218014104,0,0,GSV,1,0,"$GPGSV,2,2,08,31,29,286,22,12,24,045,28,10,22,205,18,03,06,326,23,1*6B"
5626,218117419,0,0,GSV,1,0,"$GPGSV,1,1,04,32,84,305,15,25,63,047,30,28,54,311,17,03,06,326,18,8*61"
5627,218119238,0,0,GSV,1,0,"$GLGSV,2,1,06,72,71,312,26,74,68,333,33,73,31,037,31,65,19,330,33,1*7F"
5628,218120357,0,0,GSV,1,0,"$GLGSV,2,2,06,83,03,072,37,82,02,024,28,1*73"
5629,218121159,0,0,GSV,1,0,"$GAGSV,1,1,01,02,15,042,35,7*44"
5630,218121993,0,0,GSV,1,0,"$GAGSV,1,1,01,02,15,042,23,1*45"
5631,218122667,0,0,GSV,1,0,"$GBGSV,1,1,01,16,,,26,1*74"
5632,218123172,0,0,GSV,1,0,"$GBGSV,1,1,00,4*73"
5633,218124953,0,0,RMC,1,0,"$GNRMC,111259.000,A,3629.0028,N,13634.4382,E,0.16,182.99,170726,,,A,V*06"
5635,218126109,0,0,VTG,1,0,"$GNVTG,182.99,T,,M,0.16,N,0.30,K,A*2C"
5637,218127008,0,0,MSG,1,0,"$PAIRMSG,90,111259.000,1*56"
5638,218127760,0,0,MSG,1,0,"$PAIRMSG,91,111259.000,1,0*4B"
5857,218980888,0,0,GGA,1,0,"$GNGGA,111300.000,3629.0028,N,13634.4383,E,1,15,1.79,47.5,M,34.9,M,,*48"
5883,219072089,0,0,GLL,1,0,"$GNGLL,3629.0028,N,13634.4383,E,111300.000,A,A*4E"
5884,219073490,0,0,GSA,1,0,"$GNGSA,A,3,32,25,28,12,03,,,,,,,,2.03,1.79,0.95,1*0F"
5886,219074870,0,0,GSA,1,0,"$GNGSA,A,3,72,74,73,65,,,,,,,,,2.03,1.79,0.95,2*01"
5888,219076084,0,0,GSA,1,0,"$GNGSA,A,3,02,,,,,,,,,,,,2.03,1.79,0.95,3*03"
5890,219077220,0,0,GSA,1,0,"$GNGSA,A,3,,,,,,,,,,,,,2.03,1.79,0.95,4*06"
5892,219078986,0,0,GSV,1,0,"$GPGSV,2,1,08,32,84,305,26,25,63,047,35,28,54,311,34,29,31,129,,1*6B"
5893,219080715,0,0,GSV,1,0,"$GPGSV,2,2,08,31,29,286,21,12,24,045,28,10,22,205,18,03,06,326,23,1*68"
5894,219082451,0,0,GSV,1,0,"$GPGSV,1,1,04,32,84,305,15,25,63,047,30,28,54,311,17,03,06,326,18,8*61"
5895,219084144,0,0,GSV,1,0,"$GLGSV,2,1,06,72,71,312,26,74,68,333,33,73,31,037,31,65,19,330,33,1*7F"
5902,219119877,0,0,GSV,1,0,"$GLGSV,2,2,06,83,03,072,37,82,02,024,28,1*73"
5903,219120790,0,0,GSV,1,0,"$GAGSV,1,1,01,02,15,042,35,7*44"
5904,219121579,0,0,GSV,1,0,"$GAGSV,1,1,01,02,15,042,23,1*45"
5905,219122277,0,0,GSV,1,0,"$GBGSV,1,1,01,16,,,26,1*74"
5906,219122795,0,0,GSV,1,0,"$GBGSV,1,1,00,4*73"
5907,219124510,0,0,RMC,1,0,"$GNRMC,111300.000,A,3629.0028,N,13634.4383,E,0.12,182.99,170726,,,A,V*0E"
5909,219125676,0,0,VTG,1,0,"$GNVTG,182.99,T,,M,0.12,N,0.22,K,A*2B"
5911,219126566,0,0,MSG,1,0,"$PAIRMSG,90,111300.000,1*5B"
5912,219127309,0,0,MSG,1,0,"$PAIRMSG,91,111300.000,1,0*46"
6155,220040587,0,0,GGA,1,0,"$GNGGA,111301.000,3629.0027,N,13634.4383,E,1,15,1.79,47.5,M,34.9,M,,*46"
6157,220042124,0,0,GLL,1,0,"$GNGLL,3629.0027,N,13634.4383,E,111301.000,A,A*40"
6158,220043422,0,0,GSA,1,0,"$GNGSA,A,3,32,25,28,12,03,,,,,,,,2.03,1.79,0.95,1*0F"
6160,220044727,0,0,GSA,1,0,"$GNGSA,A,3,72,74,73,65,,,,,,,,,2.03,1.79,0.95,2*01"
6162,220045867,0,0,GSA,1,0,"$GNGSA,A,3,02,,,,,,,,,,,,2.03,1.79,0.95,3*03"
6164,220047118,0,0,GSA,1,0,"$GNGSA,A,3,,,,,,,,,,,,,2.03,1.79,0.95,4*06"
6166,220048992,0,0,GSV,1,0,"$GPGSV,2,1,08,32,84,305,26,25,63,047,35,28,54,311,34,29,31,129,,1*6B"
6167,220050853,0,0,GSV,1,0,"$GPGSV,2,2,08,31,29,286,21,12,24,045,28,10,22,205,18,03,06,326,23,1*68"
6192,220149231,0,0,GSV,1,0,"$GPGSV,1,1,04,32,84,305,16,25,63,047,30,28,54,311,17,03,06,326,18,8*62"
6193,220151145,0,0,GSV,1,0,"$GLGSV,2,1,06,72,71,312,26,74,68,333,33,73,31,037,32,65,19,330,33,1*7C"
6194,220152292,0,0,GSV,1,0,"$GLGSV,2,2,06,83,03,072,37,82,02,024,28,1*73"
6195,220153123,0,0,GSV,1,0,"$GAGSV,1,1,01,02,15,042,35,7*44"
6196,220153945,0,0,GSV,1,0,"$GAGSV,1,1,01,02,15,042,23,1*45"
6197,220154646,0,0,GSV,1,0,"$GBGSV,1,1,01,16,,,26,1*74"
6198,220155133,0,0,GSV,1,0,"$GBGSV,1,1,00,4*73"
6199,220156870,0,0,RMC,1,0,"$GNRMC,111301.000,A,3629.0027,N,13634.4383,E,0.04,182.99,170726,,,A,V*07"
6201,220158025,0,0,VTG,1,0,"$GNVTG,182.99,T,,M,0.04,N,0.08,K,A*24"
6203,220158796,0,0,MSG,1,0,"$PAIRMSG,90,111301.000,1*5A"
6204,220159581,0,0,MSG,1,0,"$PAIRMSG,91,111301.000,1,0*47"
6421,220988890,0,0,010,1,0,"$PAIR010,0,0,2427,472399*3A"
6422,220989724,0,0,010,1,0,"$PAIR010,0,1,2427,472399*3B"
6423,220990423,0,0,010,1,0,"$PAIR010,0,3,2427,472519*37"
6424,220991135,0,0,010,1,0,"$PAIR010,0,2,2427,472519*36"
6425,220992831,0,0,GGA,1,0,"$GNGGA,111302.000,3629.0027,N,13634.4383,E,1,15,1.79,47.5,M,34.9,M,,*45"
6427,220994298,0,0,GLL,1,0,"$GNGLL,3629.0027,N,13634.4383,E,111302.000,A,A*43"
6428,220995629,0,0,GSA,1,0,"$GNGSA,A,3,32,25,28,12,03,,,,,,,,2.03,1.79,0.95,1*0F"
6430,220996972,0,0,GSA,1,0,"$GNGSA,A,3,72,74,73,65,,,,,,,,,2.03,1.79,0.95,2*01"
6432,220998228,0,0,GSA,1,0,"$GNGSA,A,3,02,,,,,,,,,,,,2.03,1.79,0.95,3*03"
6434,220999334,0,0,GSA,1,0,"$GNGSA,A,3,,,,,,,,,,,,,2.03,1.79,0.95,4*06"
6462,221104924,0,0,GSV,1,0,"$GPGSV,2,1,08,32,84,305,27,25,63,047,35,28,54,311,34,29,31,129,,1*6A"
6463,221106725,0,0,GSV,1,0,"$GPGSV,2,2,08,31,29,286,21,12,24,045,28,10,22,205,18,03,06,326,23,1*68"
6464,221108419,0,0,GSV,1,0,"$GPGSV,1,1,04,32,84,305,16,25,63,047,30,28,54,311,17,03,06,326,18,8*62"
6465,221110136,0,0,GSV,1,0,"$GLGSV,2,1,06,72,71,312,26,74,68,333,33,73,31,037,32,65,19,330,33,1*7C"
6466,221111263,0,0,GSV,1,0,"$GLGSV,2,2,06,83,03,072,38,82,02,024,28,1*7C"
6467,221112089,0,0,GSV,1,0,"$GAGSV,1,1,01,02,15,042,35,7*44"
6468,221112895,0,0,GSV,1,0,"$GAGSV,1,1,01,02,15,042,23,1*45"
6469,221113595,0,0,GSV,1,0,"$GBGSV,1,1,01,16,,,25,1*77"
6470,221114084,0,0,GSV,1,0,"$GBGSV,1,1,00,4*73"
6471,221115826,0,0,RMC,1,0,"$GNRMC,111302.000,A,3629.0027,N,13634.4383,E,0.15,182.99,170726,,,A,V*04"
6497,221215339,0,0,VTG,1,0,"$GNVTG,182.99,T,,M,0.15,N,0.27,K,A*29"
6499,221216279,0,0,MSG,1,0,"$PAIRMSG,90,111302.000,1*59"
6500,221217047,0,0,MSG,1,0,"$PAIRMSG,91,111302.000,1,0*44"
6717,222045922,0,0,GGA,1,0,"$GNGGA,111303.000,3629.0027,N,13634.4383,E,1,15,1.79,47.5,M,34.9,M,,*44"
6719,222047437,0,0,GLL,1,0,"$GNGLL,3629.0027,N,13634.4383,E,111303.000,A,A*42"
6720,222048758,0,0,GSA,1,0,"$GNGSA,A,3,32,25,28,12,03,,,,,,,,2.03,1.79,0.95,1*0F"
6722,222050076,0,0,GSA,1,0,"$GNGSA,A,3,72,74,73,65,,,,,,,,,2.03,1.79,0.95,2*01"
6724,222051271,0,0,GSA,1,0,"$GNGSA,A,3,02,,,,,,,,,,,,2.03,1.79,0.95,3*03"
6726,222052385,0,0,GSA,1,0,"$GNGSA,A,3,,,,,,,,,,,,,2.03,1.79,0.95,4*06"
6728,222054054,0,0,GSV,1,0,"$GPGSV,2,1,08,32,84,305,27,25,63,047,35,28,54,311,34,29,31,129,,1*6A"
6729,222055775,0,0,GSV,1,0,"$GPGSV,2,2,08,31,29,286,21,12,24,045,28,10,22,205,18,03,06,326,23,1*68"
6756,222161556,0,0,GSV,1,0,"$GPGSV,1,1,04,32,84,305,17,25,63,047,30,28,54,311,18,03,06,326,18,8*6C"
6757,222163378,0,0,GSV,1,0,"$GLGSV,2,1,06,72,71,312,26,74,68,333,33,73,31,037,32,65,19,330,33,1*7C"
6758,222164491,0,0,GSV,1,0,"$GLGSV,2,2,06,83,03,072,38,82,02,024,28,1*7C"
6759,222165328,0,0,GSV,1,0,"$GAGSV,1,1,01,02,15,042,35,7*44"
6760,222166142,0,0,GSV,1,0,"$GAGSV,1,1,01,02,15,042,23,1*45"
6761,222166840,0,0,GSV,1,0,"$GBGSV,1,1,01,16,,,26,1*74"
6762,222167331,0,0,GSV,1,0,"$GBGSV,1,1,00,4*73"
6763,222169048,0,0,RMC,1,0,"$GNRMC,111303.000,A,3629.0027,N,13634.4383,E,0.16,182.99,170726,,,A,V*06"
6765,222170207,0,0,VTG,1,0,"$GNVTG,182.99,T,,M,0.16,N,0.29,K,A*24"
6767,222170969,0,0,MSG,1,0,"$PAIRMSG,90,111303.000,1*58"
6768,222171721,0,0,MSG,1,0,"$PAIRMSG,91,111303.000,1,0*45"
6985,223029974,0,0,GGA,1,0,"$GNGGA,111304.000,3629.0027,N,13634.4383,E,1,15,1.79,47.5,M,34.9,M,,*43"
6987,223031472,0,0,GLL,1,0,"$GNGLL,3629.0027,N,13634.4383,E,111304.000,A,A*45"
6988,223032797,0,0,GSA,1,0,"$GNGSA,A,3,32,25,28,12,03,,,,,,,,2.03,1.79,0.95,1*0F"
6990,223034101,0,0,GSA,1,0,"$GNGSA,A,3,72,74,73,65,,,,,,,,,2.03,1.79,0.95,2*01"
6992,223035343,0,0,GSA,1,0,"$GNGSA,A,3,02,,,,,,,,,,,,2.03,1.79,0.95,3*03"
6994,223036462,0,0,GSA,1,0,"$GNGSA,A,3,,,,,,,,,,,,,2.03,1.79,0.95,4*06"
6996,223038211,0,0,GSV,1,0,"$GPGSV,2,1,08,32,84,305,27,25,63,047,35,28,54,311,34,29,31,129,,1*6A"
6997,223039980,0,0,GSV,1,0,"$GPGSV,2,2,08,31,29,286,21,12,24,045,28,10,22,205,18,03,06,326,23,1*68"
7022,223145554,0,0,GSV,1,0,"$GPGSV,1,1,04,32,84,305,16,25,63,047,30,28,54,311,18,03,06,326,18,8*6D"
7023,223147356,0,0,GSV,1,0,"$GLGSV,2,1,06,72,71,312,26,74,68,333,33,73,31,037,32,65,19,330,33,1*7C"
7024,223148463,0,0,GSV,1,0,"$GLGSV,2,2,06,83,03,072,38,82,02,024,27,1*73"
7025,223149285,0,0,GSV,1,0,"$GAGSV,1,1,01,02,15,042,35,7*44"
7026,223150084,0,0,GSV,1,0,"$GAGSV,1,1,01,02,15,042,23,1*45"
7027,223150776,0,0,GSV,1,0,"$GBGSV,1,1,01,16,,,26,1*74"
7028,223151286,0,0,GSV,1,0,"$GBGSV,1,1,00,4*73"
7029,223153019,0,0,RMC,1,0,"$GNRMC,111304.000,A,3629.0027,N,13634.4383,E,0.08,182.99,170726,,,A,V*0E"
7031,223154158,0,0,VTG,1,0,"$GNVTG,182.99,T,,M,0.08,N,0.15,K,A*24"
7033,223154943,0,0,MSG,1,0,"$PAIRMSG,90,111304.000,1*5F"
7034,223155729,0,0,MSG,1,0,"$PAIRMSG,91,111304.000,1,0*42"
7253,223984777,0,0,GGA,1,0,"$GNGGA,111305.000,3629.0026,N,13634.4383,E,1,15,1.79,47.5,M,34.9,M,,*43"
7255,223986268,0,0,GLL,1,0,"$GNGLL,3629.0026,N,13634.4383,E,111305.000,A,A*45"
7256,223987588,0,0,GSA,1,0,"$GNGSA,A,3,32,25,28,12,03,,,,,,,,2.03,1.79,0.95,1*0F"
7258,223988878,0,0,GSA,1,0,"$GNGSA,A,3,72,74,73,65,,,,,,,,,2.03,1.79,0.95,2*01"
7284,224081526,0,0,GSA,1,0,"$GNGSA,A,3,02,,,,,,,,,,,,2.03,1.79,0.95,3*03"
7286,224082803,0,0,GSA,1,0,"$GNGSA,A,3,,,,,,,,,,,,,2.03,1.79,0.95,4*06"
7288,224084544,0,0,GSV,1,0,"$GPGSV,2,1,08,32,84,305,27,25,63,047,35,28,54,311,34,29,31,129,,1*6A"
7289,224086303,0,0,GSV,1,0,"$GPGSV,2,2,08,31,29,286,20,12,24,045,28,10,22,205,18,03,06,326,22,1*68"
7290,224087991,0,0,GSV,1,0,"$GPGSV,1,1,04,32,84,305,16,25,63,047,30,28,54,311,18,03,06,326,17,8*62"
7291,224089717,0,0,GSV,1,0,"$GLGSV,2,1,06,72,71,312,26,74,68,333,33,73,31,037,32,65,19,330,33,1*7C"
7292,224090836,0,0,GSV,1,0,"$GLGSV,2,2,06,83,03,072,39,82,02,024,26,1*73"
7293,224091671,0,0,GSV,1,0,"$GAGSV,1,1,01,02,15,042,35,7*44"
7294,224092474,0,0,GSV,1,0,"$GAGSV,1,1,01,02,15,042,23,1*45"
7295,224093184,0,0,GSV,1,0,"$GBGSV,1,1,01,16,,,26,1*74"
7320,224190726,0,0,GSV,1,0,"$GBGSV,1,1,00,4*73"
7321,224192622,0,0,RMC,1,0,"$GNRMC,111305.000,A,3629.0026,N,13634.4383,E,0.17,182.99,170726,,,A,V*00"
7323,224193738,0,0,VTG,1,0,"$GNVTG,182.99,T,,M,0.17,N,0.32,K,A*2F"
7325,224194526,0,0,MSG,1,0,"$PAIRMSG,90,111305.000,1*5E"
7326,224195320,0,0,MSG,1,0,"$PAIRMSG,91,111305.000,1,0*43"
7545,225042687,0,0,GGA,1,0,"$GNGGA,111306.000,3629.0026,N,13634.4383,E,1,15,1.79,47.5,M,34.9,M,,*40"
7547,225044176,0,0,GLL,1,0,"$GNGLL,3629.0026,N,13634.4383,E,111306.000,A,A*46"
7548,225045562,0,0,GSA,1,0,"$GNGSA,A,3,32,25,28,12,03,,,,,,,,2.03,1.79,0.95,1*0F"
7550,225046880,0,0,GSA,1,0,"$GNGSA,A,3,72,74,73,65,,,,,,,,,2.03,1.79,0.95,2*01"
7552,225048144,0,0,GSA,1,0,"$GNGSA,A,3,02,,,,,,,,,,,,2.03,1.79,0.95,3*03"
7554,225049290,0,0,GSA,1,0,"$GNGSA,A,3,,,,,,,,,,,,,2.03,1.79,0.95,4*06"
7556,225051040,0,0,GSV,1,0,"$GPGSV,2,1,08,32,84,305,28,25,63,047,35,28,54,311,34,29,31,129,,1*65"
7557,225052782,0,0,GSV,1,0,"$GPGSV,2,2,08,31,29,286,20,12,24,045,28,10,22,205,18,03,06,326,22,1*68"
7582,225152083,0,0,GSV,1,0,"$GPGSV,1,1,04,32,84,305,15,25,63,047,30,28,54,311,18,03,06,326,14,8*62"
7583,225153891,0,0,GSV,1,0,"$GLGSV,2,1,06,72,71,312,26,74,68,333,33,73,31,037,32,65,19,330,33,1*7C"
7584,225155011,0,0,GSV,1,0,"$GLGSV,2,2,06,83,03,072,39,82,02,024,26,1*73"
7585,225155827,0,0,GSV,1,0,"$GAGSV,1,1,01,02,15,042,35,7*44"
7586,225156639,0,0,GSV,1,0,"$GAGSV,1,1,01,02,15,042,23,1*45"
7587,225157333,0,0,GSV,1,0,"$GBGSV,1,1,01,16,,,26,1*74"
7588,225157822,0,0,GSV,1,0,"$GBGSV,1,1,00,4*73"
7589,225159574,0,0,RMC,1,0,"$GNRMC,111306.000,A,3629.0026,N,13634.4383,E,0.21,182.99,170726,,,A,V*06"
7591,225160715,0,0,VTG,1,0,"$GNVTG,182.99,T,,M,0.21,N,0.39,K,A*21"
7593,225161466,0,0,MSG,1,0,"$PAIRMSG,90,111306.000,1*5D"
7594,225162235,0,0,MSG,1,0,"$PAIRMSG,91,111306.000,1,0*40"
7813,226011269,0,0,GGA,1,0,"$GNGGA,111307.000,3629.0026,N,13634.4383,E,1,15,1.79,47.5,M,34.9,M,,*41"
7815,226012763,0,0,GLL,1,0,"$GNGLL,3629.0026,N,13634.4383,E,111307.000,A,A*47"
7816,226014091,0,0,GSA,1,0,"$GNGSA,A,3,32,25,28,12,03,,,,,,,,2.03,1.79,0.95,1*0F"
7818,226015427,0,0,GSA,1,0,"$GNGSA,A,3,72,74,73,65,,,,,,,,,2.03,1.79,0.95,2*01"
7820,226016641,0,0,GSA,1,0,"$GNGSA,A,3,02,,,,,,,,,,,,2.03,1.79,0.95,3*03"
7822,226017765,0,0,GSA,1,0,"$GNGSA,A,3,,,,,,,,,,,,,2.03,1.79,0.95,4*06"
7824,226019535,0,0,GSV,1,0,"$GPGSV,2,1,08,32,84,305,29,25,63,047,35,28,54,311,34,29,31,129,,1*64"
7825,226021296,0,0,GSV,1,0,"$GPGSV,2,2,08,31,29,286,20,12,24,045,29,10,22,205,18,03,06,326,22,1*69"
7838,226077371,0,0,GSV,1,0,"$GPGSV,1,1,04,32,84,305,18,25,63,047,30,28,54,311,18,03,06,326,14,8*6F"
7839,226079204,0,0,GSV,1,0,"$GLGSV,2,1,06,72,71,312,26,74,68,333,33,73,31,037,32,65,19,330,33,1*7C"
7840,226080326,0,0,GSV,1,0,"$GLGSV,2,2,06,83,03,072,39,82,02,024,26,1*73"
7841,226081149,0,0,GSV,1,0,"$GAGSV,1,1,01,02,15,042,35,7*44"
7842,226081952,0,0,GSV,1,0,"$GAGSV,1,1,01,02,15,042,23,1*45"
7843,226082820,0,0,GSV,1,0,"$GBGSV,1,1,02,36,,,27,16,,,26,1*77"
7844,226083315,0,0,GSV,1,0,"$GBGSV,1,1,00,4*73"
7845,226085021,0,0,RMC,1,0,"$GNRMC,111307.000,A,3629.0026,N,13634.4383,E,0.11,182.99,170726,,,A,V*04"
7847,226086192,0,0,VTG,1,0,"$GNVTG,182.99,T,,M,0.11,N,0.21,K,A*2B"
7849,226086953,0,0,MSG,1,0,"$PAIRMSG,90,111307.000,1*5C"
7850,226087701,0,0,MSG,1,0,"$PAIRMSG,91,111307.000,1,0*41"
8099,227034429,0,0,GGA,1,0,"$GNGGA,111308.000,3629.0025,N,13634.4383,E,1,15,1.79,47.5,M,34.9,M,,*4D"
8101,227035935,0,0,GLL,1,0,"$GNGLL,3629.0025,N,13634.4383,E,111308.000,A,A*4B"
8102,227037275,0,0,GSA,1,0,"$GNGSA,A,3,32,25,28,12,03,,,,,,,,2.03,1.79,0.95,1*0F"
8104,227038671,0,0,GSA,1,0,"$GNGSA,A,3,72,74,73,65,,,,,,,,,2.03,1.79,0.95,2*01"
8106,227039901,0,0,GSA,1,0,"$GNGSA,A,3,02,,,,,,,,,,,,2.03,1.79,0.95,3*03"
8108,227041063,0,0,GSA,1,0,"$GNGSA,A,3,,,,,,,,,,,,,2.03,1.79,0.95,4*06"
8110,227042820,0,0,GSV,1,0,"$GPGSV,2,1,08,32,84,305,29,25,61,046,35,28,54,311,34,29,31,129,,1*67"
8111,227044519,0,0,GSV,1,0,"$GPGSV,2,2,08,31,29,286,20,12,24,045,29,10,22,205,18,03,06,326,22,1*69"
8136,227153641,0,0,GSV,1,0,"$GPGSV,1,1,04,32,84,305,17,25,61,046,30,28,54,311,18,03,06,326,14,8*63"
8137,227155443,0,0,GSV,1,0,"$GLGSV,2,1,06,72,71,312,25,74,68,333,33,73,31,037,32,65,19,330,33,1*7F"
8138,227156570,0,0,GSV,1,0,"$GLGSV,2,2,06,83,03,072,38,82,02,024,26,1*72"
8139,227157391,0,0,GSV,1,0,"$GAGSV,1,1,01,02,15,042,35,7*44"
8140,227158170,0,0,GSV,1,0,"$GAGSV,1,1,01,02,15,042,23,1*45"
8141,227159032,0,0,GSV,1,0,"$GBGSV,1,1,02,36,,,27,16,,,26,1*77"
8142,227159565,0,0,GSV,1,0,"$GBGSV,1,1,00,4*73"
8143,227161294,0,0,RMC,1,0,"$GNRMC,111308.000,A,3629.0025,N,13634.4383,E,0.14,182.99,170726,,,A,V*0D"
8145,227162417,0,0,VTG,1,0,"$GNVTG,182.99,T,,M,0.14,N,0.26,K,A*29"
8147,227163214,0,0,MSG,1,0,"$PAIRMSG,90,111308.000,1*53"
8148,227163959,0,0,MSG,1,0,"$PAIRMSG,91,111308.000,1,0*4E"
8367,228031501,0,0,GGA,1,0,"$GNGGA,111309.000,3629.0025,N,13634.4383,E,1,15,1.79,47.5,M,34.9,M,,*4C"
8369,228032983,0,0,GLL,1,0,"$GNGLL,3629.0025,N,13634.4383,E,111309.000,A,A*4A"
8370,228034360,0,0,GSA,1,0,"$GNGSA,A,3,32,25,28,12,03,,,,,,,,2.03,1.79,0.95,1*0F"
8372,228035757,0,0,GSA,1,0,"$GNGSA,A,3,72,74,73,65,,,,,,,,,2.03,1.79,0.95,2*01"
8374,228037003,0,0,GSA,1,0,"$GNGSA,A,3,02,,,,,,,,,,,,2.03,1.79,0.95,3*03"
8376,228038213,0,0,GSA,1,0,"$GNGSA,A,3,,,,,,,,,,,,,2.03,1.79,0.95,4*06"
8378,228040094,0,0,GSV,1,0,"$GPGSV,2,1,08,32,84,305,29,25,61,046,35,28,54,311,34,29,31,129,,1*67"
8379,228041874,0,0,GSV,1,0,"$GPGSV,2,2,08,31,29,286,20,12,24,045,29,10,22,205,17,03,06,326,22,1*66"
8404,228143450,0,0,GSV,1,0,"$GPGSV,1,1,04,32,84,305,17,25,61,046,30,28,54,311,18,03,06,326,14,8*63"
8405,228145279,0,0,GSV,1,0,"$GLGSV,2,1,06,72,71,312,25,74,68,333,33,73,31,037,32,65,19,330,33,1*7F"
8406,228146398,0,0,GSV,1,0,"$GLGSV,2,2,06,83,03,072,37,82,02,024,26,1*7D"
8407,228147225,0,0,GSV,1,0,"$GAGSV,1,1,01,02,15,042,35,7*44"
8408,228148037,0,0,GSV,1,0,"$GAGSV,1,1,01,02,15,042,23,1*45"
8409,228148900,0,0,GSV,1,0,"$GBGSV,1,1,02,36,,,26,16,,,26,1*76"
8410,228149395,0,0,GSV,1,0,"$GBGSV,1,1,00,4*73"
8411,228151125,0,0,RMC,1,0,"$GNRMC,111309.000,A,3629.0025,N,13634.4383,E,0.12,182.99,170726,,,A,V*0A"
8413,228152283,0,0,VTG,1,0,"$GNVTG,182.99,T,,M,0.12,N,0.22,K,A*2B"
8415,228153068,0,0,MSG,1,0,"$PAIRMSG,90,111309.000,1*52"
8416,228153866,0,0,MSG,1,0,"$PAIRMSG,91,111309.000,1,0*4F"
8655,229061363,0,0,GGA,1,0,"$GNGGA,111310.000,3629.0025,N,13634.4383,E,1,15,1.79,47.5,M,34.9,M,,*44"
8657,229062873,0,0,GLL,1,0,"$GNGLL,3629.0025,N,13634.4383,E,111310.000,A,A*42"
8658,229064215,0,0,GSA,1,0,"$GNGSA,A,3,32,25,28,12,03,,,,,,,,2.03,1.79,0.95,1*0F"
8660,229065549,0,0,GSA,1,0,"$GNGSA,A,3,72,74,73,65,,,,,,,,,2.03,1.79,0.95,2*01"
8662,229066750,0,0,GSA,1,0,"$GNGSA,A,3,02,,,,,,,,,,,,2.03,1.79,0.95,3*03"
8664,229067811,0,0,GSA,1,0,"$GNGSA,A,3,,,,,,,,,,,,,2.03,1.79,0.95,4*06"
8666,229069564,0,0,GSV,1,0,"$GPGSV,2,1,08,32,84,305,29,25,61,046,35,28,54,311,34,29,31,129,,1*67"
8667,229071315,0,0,GSV,1,0,"$GPGSV,2,2,08,31,29,286,20,12,24,045,29,10,22,205,16,03,06,326,22,1*67"
8692,229170881,0,0,GSV,1,0,"$GPGSV,1,1,04,32,84,305,16,25,61,046,30,28,54,311,18,03,06,326,13,8*65"
8693,229172750,0,0,GSV,1,0,"$GLGSV,2,1,06,72,71,312,27,74,68,333,33,73,31,037,32,65,19,330,33,1*7D"
8694,229173830,0,0,GSV,1,0,"$GLGSV,2,2,06,83,03,072,36,82,02,024,26,1*7C"
8695,229174628,0,0,GSV,1,0,"$GAGSV,1,1,01,02,15,042,35,7*44"
8696,229175458,0,0,GSV,1,0,"$GAGSV,1,1,01,02,15,042,23,1*45"
8697,229176342,0,0,GSV,1,0,"$GBGSV,1,1,02,36,,,29,16,,,26,1*79"
8698,229176837,0,0,GSV,1,0,"$GBGSV,1,1,00,4*73"
8699,229178568,0,0,RMC,1,0,"$GNRMC,111310.000,A,3629.0025,N,13634.4383,E,0.11,182.99,170726,,,A,V*01"
8701,229179709,0,0,VTG,1,0,"$GNVTG,182.99,T,,M,0.11,N,0.20,K,A*2A"
8703,229180464,0,0,MSG,1,0,"$PAIRMSG,90,111310.000,1*5A"
8704,229181234,0,0,MSG,1,0,"$PAIRMSG,91,111310.000,1,0*47"
8923,230020386,0,0,GGA,1,0,"$GNGGA,111311.000,3629.0025,N,13634.4383,E,1,15,1.79,47.5,M,34.9,M,,*45"
8925,230021883,0,0,GLL,1,0,"$GNGLL,3629.0025,N,13634.4383,E,111311.000,A,A*43"
8926,230023225,0,0,GSA,1,0,"$GNGSA,A,3,32,25,28,12,03,,,,,,,,2.03,1.79,0.95,1*0F"
8928,230024548,0,0,GSA,1,0,"$GNGSA,A,3,72,74,73,65,,,,,,,,,2.03,1.79,0.95,2*01"
8930,230025772,0,0,GSA,1,0,"$GNGSA,A,3,02,,,,,,,,,,,,2.03,1.79,0.95,3*03"
8932,230026960,0,0,GSA,1,0,"$GNGSA,A,3,,,,,,,,,,,,,2.03,1.79,0.95,4*06"
8934,230028770,0,0,GSV,1,0,"$GPGSV,2,1,08,32,84,305,30,25,61,046,35,28,54,312,34,29,31,129,,1*6C"
8935,230030534,0,0,GSV,1,0,"$GPGSV,2,2,08,31,29,286,20,12,24,045,29,10,22,205,16,03,06,326,22,1*67"
8960,230132972,0,0,GSV,1,0,"$GPGSV,1,1,04,32,84,305,16,25,61,046,30,28,54,312,18,03,06,326,14,8*61"
8961,230134790,0,0,GSV,1,0,"$GLGSV,2,1,06,72,71,312,26,74,68,333,33,73,31,037,31,65,19,330,33,1*7F"
8962,230135881,0,0,GSV,1,0,"$GLGSV,2,2,06,83,03,072,35,82,02,024,26,1*7F"
8963,230136709,0,0,GSV,1,0,"$GAGSV,1,1,01,02,15,042,35,7*44"
8964,230137520,0,0,GSV,1,0,"$GAGSV,1,1,01,02,15,042,23,1*45"
8965,230138395,0,0,GSV,1,0,"$GBGSV,1,1,02,36,,,30,16,,,26,1*71"
8966,230138883,0,0,GSV,1,0,"$GBGSV,1,1,00,4*73"
8967,230140609,0,0,RMC,1,0,"$GNRMC,111311.000,A,3629.0025,N,13634.4383,E,0.08,182.99,170726,,,A,V*08"
8969,230141756,0,0,VTG,1,0,"$GNVTG,182.99,T,,M,0.08,N,0.15,K,A*24"
8971,230142508,0,0,MSG,1,0,"$PAIRMSG,90,111311.000,1*5B"
8972,230143290,0,0,MSG,1,0,"$PAIRMSG,91,111311.000,1,0*46"
9191,230981929,0,0,GGA,1,0,"$GNGGA,111312.000,3629.0024,N,13634.4383,E,1,15,1.79,47.5,M,34.9,M,,*47"
9217,231079688,0,0,GLL,1,0,"$GNGLL,3629.0024,N,13634.4383,E,111312.000,A,A*41"
9218,231081101,0,0,GSA,1,0,"$GNGSA,A,3,32,25,28,12,03,,,,,,,,2.03,1.79,0.95,1*0F"
9220,231082485,0,0,GSA,1,0,"$GNGSA,A,3,72,74,73,65,,,,,,,,,2.03,1.79,0.95,2*01"
9222,231083691,0,0,GSA,1,0,"$GNGSA,A,3,02,,,,,,,,,,,,2.03,1.79,0.95,3*03"
9224,231084751,0,0,GSA,1,0,"$GNGSA,A,3,,,,,,,,,,,,,2.03,1.79,0.95,4*06"
9226,231086495,0,0,GSV,1,0,"$GPGSV,2,1,08,32,84,305,30,25,61,046,35,28,54,312,34,29,32,128,,1*6E"
9227,231088226,0,0,GSV,1,0,"$GPGSV,2,2,08,31,29,286,20,12,24,045,29,10,22,205,16,03,06,326,23,1*66"
9228,231089955,0,0,GSV,1,0,"$GPGSV,1,1,04,32,84,305,16,25,61,046,30,28,54,312,18,03,06,326,15,8*60"
9229,231091996,0,0,GSV,1,0,"$GLGSV,2,1,06,72,71,312,25,74,68,333,33,73,31,037,31,65,19,330,33,1*7C"
9254,231195328,0,0,GSV,1,0,"$GLGSV,2,2,06,83,03,072,34,82,02,024,26,1*7E"
9255,231196247,0,0,GSV,1,0,"$GAGSV,1,1,01,02,15,042,35,7*44"
9256,231197062,0,0,GSV,1,0,"$GAGSV,1,1,01,02,15,042,23,1*45"
9257,231197926,0,0,GSV,1,0,"$GBGSV,1,1,02,36,,,30,16,,,26,1*71"
9258,231198418,0,0,GSV,1,0,"$GBGSV,1,1,00,4*73"
9259,231200148,0,0,RMC,1,0,"$GNRMC,111312.000,A,3629.0024,N,13634.4383,E,0.22,182.99,170726,,,A,V*02"
9261,231201306,0,0,VTG,1,0,"$GNVTG,182.99,T,,M,0.22,N,0.41,K,A*2D"
9263,231202092,0,0,MSG,1,0,"$PAIRMSG,90,111312.000,1*58"
9264,231202896,0,0,MSG,1,0,"$PAIRMSG,91,111312.000,1,0*45"
9491,232068798,0,0,GGA,1,0,"$GNGGA,111313.000,3629.0024,N,13634.4383,E,1,15,1.79,47.5,M,34.9,M,,*46"
9493,232070293,0,0,GLL,1,0,"$GNGLL,3629.0024,N,13634.4383,E,111313.000,A,A*40"
9494,232071635,0,0,GSA,1,0,"$GNGSA,A,3,32,25,28,12,03,,,,,,,,2.03,1.79,0.95,1*0F"
9496,232072932,0,0,GSA,1,0,"$GNGSA,A,3,72,74,73,65,,,,,,,,,2.03,1.79,0.95,2*01"
9498,232074180,0,0,GSA,1,0,"$GNGSA,A,3,02,,,,,,,,,,,,2.03,1.79,0.95,3*03"
9500,232075289,0,0,GSA,1,0,"$GNGSA,A,3,,,,,,,,,,,,,2.03,1.79,0.95,4*06"
9502,232077011,0,0,GSV,1,0,"$GPGSV,2,1,08,32,84,305,30,25,61,046,35,28,54,312,34,29,32,128,,1*6E"
9503,232078763,0,0,GSV,1,0,"$GPGSV,2,2,08,31,29,286,20,12,24,045,29,10,22,205,16,03,06,326,23,1*66"
9528,232179373,0,0,GSV,1,0,"$GPGSV,1,1,04,32,84,305,16,25,61,046,30,28,54,312,18,03,06,326,13,8*66"
9529,232181180,0,0,GSV,1,0,"$GLGSV,2,1,06,72,71,312,24,74,68,333,33,73,31,037,30,65,19,330,34,1*7B"
9530,232182277,0,0,GSV,1,0,"$GLGSV,2,2,06,83,03,072,33,82,02,024,26,1*79"
9531,232183059,0,0,GSV,1,0,"$GAGSV,1,1,01,02,15,042,35,7*44"
9532,232183857,0,0,GSV,1,0,"$GAGSV,1,1,01,02,15,042,23,1*45"
9533,232184741,0,0,GSV,1,0,"$GBGSV,1,1,02,36,,,30,16,,,26,1*71"
9534,232185265,0,0,GSV,1,0,"$GBGSV,1,1,00,4*73"
9535,232186999,0,0,RMC,1,0,"$GNRMC,111313.000,A,3629.0024,N,13634.4383,E,0.09,182.99,170726,,,A,V*0A"
9537,232188135,0,0,VTG,1,0,"$GNVTG,182.99,T,,M,0.09,N,0.16,K,A*26"
9539,232188963,0,0,MSG,1,0,"$PAIRMSG,90,111313.000,1*59"
9540,232189703,0,0,MSG,1,0,"$PAIRMSG,91,111313.000,1,0*44"
9759,233014349,0,0,GGA,1,0,"$GNGGA,111314.000,3629.0024,N,13634.4382,E,1,15,1.79,47.5,M,34.9,M,,*40"
9761,233015900,0,0,GLL,1,0,"$GNGLL,3629.0024,N,13634.4382,E,111314.000,A,A*46"
9762,233017228,0,0,GSA,1,0,"$GNGSA,A,3,32,25,28,12,03,,,,,,,,2.03,1.79,0.95,1*0F"
9764,233018571,0,0,GSA,1,0,"$GNGSA,A,3,72,74,73,65,,,,,,,,,2.03,1.79,0.95,2*01"
9766,233019782,0,0,GSA,1,0,"$GNGSA,A,3,02,,,,,,,,,,,,2.03,1.79,0.95,3*03"
9768,233020856,0,0,GSA,1,0,"$GNGSA,A,3,,,,,,,,,,,,,2.03,1.79,0.95,4*06"
9770,233022611,0,0,GSV,1,0,"$GPGSV,2,1,08,32,84,305,30,25,61,046,35,28,54,312,33,29,32,128,,1*69"
9771,233024362,0,0,GSV,1,0,"$GPGSV,2,2,08,31,29,287,20,12,24,045,29,10,22,205,16,03,06,326,23,1*67"
9796,233129314,0,0,GSV,1,0,"$GPGSV,1,1,04,32,84,305,16,25,61,046,30,28,54,312,18,03,06,326,13,8*66"
9797,233131109,0,0,GSV,1,0,"$GLGSV,2,1,06,72,71,312,25,74,68,333,33,73,31,037,30,65,19,330,34,1*7A"
9798,233132215,0,0,GSV,1,0,"$GLGSV,2,2,06,83,03,072,32,82,02,024,25,1*7B"
9799,233133036,0,0,GSV,1,0,"$GAGSV,1,1,01,02,15,042,35,7*44"
9800,233133856,0,0,GSV,1,0,"$GAGSV,1,1,01,02,15,042,23,1*45"
9801,233134715,0,0,GSV,1,0,"$GBGSV,1,1,02,36,,,30,16,,,26,1*71"
9802,233135201,0,0,GSV,1,0,"$GBGSV,1,1,00,4*73"
9803,233136953,0,0,RMC,1,0,"$GNRMC,111314.000,A,3629.0024,N,13634.4382,E,0.13,182.99,170726,,,A,V*07"
9805,233138095,0,0,VTG,1,0,"$GNVTG,182.99,T,,M,0.13,N,0.24,K,A*2C"
9807,233138896,0,0,MSG,1,0,"$PAIRMSG,90,111314.000,1*5E"
9808,233139660,0,0,MSG,1,0,"$PAIRMSG,91,111314.000,1,0*43"
10027,233986422,0,0,GGA,1,0,"$GNGGA,111315.000,3629.0024,N,13634.4382,E,1,15,1.79,47.5,M,34.9,M,,*41"
10029,233987924,0,0,GLL,1,0,"$GNGLL,3629.0024,N,13634.4382,E,111315.000,A,A*47"
10030,233989264,0,0,GSA,1,0,"$GNGSA,A,3,32,25,28,12,03,,,,,,,,2.03,1.79,0.95,1*0F"
10032,233990595,0,0,GSA,1,0,"$GNGSA,A,3,72,74,73,65,,,,,,,,,2.03,1.79,0.95,2*01"
10058,234081918,0,0,GSA,1,0,"$GNGSA,A,3,02,,,,,,,,,,,,2.03,1.79,0.95,3*03"
10060,234083313,0,0,GSA,1,0,"$GNGSA,A,3,,,,,,,,,,,,,2.03,1.79,0.95,4*06"
10062,234085027,0,0,GSV,1,0,"$GPGSV,2,1,08,32,85,298,30,25,61,046,35,28,54,312,33,29,32,128,,1*6D"
10063,234086831,0,0,GSV,1,0,"$GPGSV,2,2,08,31,29,287,20,12,24,045,29,10,22,205,16,03,06,326,23,1*67"
10064,234088530,0,0,GSV,1,0,"$GPGSV,1,1,04,32,85,298,16,25,61,046,30,28,54,312,18,03,06,326,14,8*65"
10065,234090331,0,0,GSV,1,0,"$GLGSV,2,1,06,72,71,312,24,74,68,333,33,73,31,037,30,65,19,330,34,1*7B"
10066,234091795,0,0,GSV,1,0,"$GLGSV,2,2,06,83,03,072,31,82,02,024,25,1*78"
10067,234092922,0,0,GSV,1,0,"$GAGSV,1,1,01,02,15,042,35,7*44"
10068,234093782,0,0,GSV,1,0,"$GAGSV,1,1,01,02,15,042,23,1*45"
10093,234192485,0,0,GSV,1,0,"$GBGSV,1,1,02,36,,,30,16,,,27,1*70"
10094,234193104,0,0,GSV,1,0,"$GBGSV,1,1,00,4*73"
10095,234194850,0,0,RMC,1,0,"$GNRMC,111315.000,A,3629.0024,N,13634.4382,E,0.18,182.99,170726,,,A,V*0D"
10097,234195994,0,0,VTG,1,0,"$GNVTG,182.99,T,,M,0.18,N,0.33,K,A*21"
10099,234196838,0,0,MSG,1,0,"$PAIRMSG,90,111315.000,1*5F"
10100,234197591,0,0,MSG,1,0,"$PAIRMSG,91,111315.000,1,0*42"
10317,235012502,0,0,GGA,1,0,"$GNGGA,111316.000,3629.0024,N,13634.4382,E,1,15,1.79,47.5,M,34.9,M,,*42"
10319,235014021,0,0,GLL,1,0,"$GNGLL,3629.0024,N,13634.4382,E,111316.000,A,A*44"
10320,235015367,0,0,GSA,1,0,"$GNGSA,A,3,32,25,28,12,03,,,,,,,,2.03,1.79,0.95,1*0F"
10322,235016705,0,0,GSA,1,0,"$GNGSA,A,3,72,74,73,65,,,,,,,,,2.03,1.79,0.95,2*01"
10324,235017884,0,0,GSA,1,0,"$GNGSA,A,3,02,,,,,,,,,,,,2.03,1.79,0.95,3*03"
10326,235019099,0,0,GSA,1,0,"$GNGSA,A,3,,,,,,,,,,,,,2.03,1.79,0.95,4*06"
10328,235020850,0,0,GSV,1,0,"$GPGSV,2,1,08,32,85,298,30,25,61,046,35,28,54,312,33,29,32,128,,1*6D"
10329,235022594,0,0,GSV,1,0,"$GPGSV,2,2,08,31,29,287,19,12,24,045,29,10,22,205,16,03,06,326,24,1*6A"
10354,235123601,0,0,GSV,1,0,"$GPGSV,1,1,04,32,85,298,16,25,61,046,30,28,54,312,18,03,06,326,14,8*65"
10355,235125414,0,0,GSV,1,0,"$GLGSV,2,1,06,72,71,312,25,74,68,333,33,73,31,037,30,65,19,330,34,1*7A"
10356,235126537,0,0,GSV,1,0,"$GLGSV,2,2,06,83,03,072,32,82,02,024,25,1*7B"
10357,235127359,0,0,GSV,1,0,"$GAGSV,1,1,01,02,15,042,35,7*44"
10358,235128149,0,0,GSV,1,0,"$GAGSV,1,1,01,02,15,042,24,1*42"
10359,235129035,0,0,GSV,1,0,"$GBGSV,1,1,02,36,,,30,16,,,27,1*70"
10360,235129552,0,0,GSV,1,0,"$GBGSV,1,1,00,4*73"
10361,235131286,0,0,RMC,1,0,"$GNRMC,111316.000,A,3629.0024,N,13634.4382,E,0.19,182.99,170726,,,A,V*0F"
10363,235132420,0,0,VTG,1,0,"$GNVTG,182.99,T,,M,0.19,N,0.36,K,A*25"
10365,235133221,0,0,MSG,1,0,"$PAIRMSG,90,111316.000,1*5C"
10366,235133969,0,0,MSG,1,0,"$PAIRMSG,91,111316.000,1,0*41"
10609,236062881,0,0,GGA,1,0,"$GNGGA,111317.000,3629.0023,N,13634.4382,E,1,15,1.79,47.5,M,34.9,M,,*44"
10611,236064367,0,0,GLL,1,0,"$GNGLL,3629.0023,N,13634.4382,E,111317.000,A,A*42"
10612,236065702,0,0,GSA,1,0,"$GNGSA,A,3,32,25,28,12,03,,,,,,,,2.03,1.79,0.95,1*0F"
10614,236067054,0,0,GSA,1,0,"$GNGSA,A,3,72,74,73,65,,,,,,,,,2.03,1.79,0.95,2*01"
10616,236068247,0,0,GSA,1,0,"$GNGSA,A,3,02,,,,,,,,,,,,2.03,1.79,0.95,3*03"
10618,236069411,0,0,GSA,1,0,"$GNGSA,A,3,,,,,,,,,,,,,2.03,1.79,0.95,4*06"
10620,236071074,0,0,GSV,1,0,"$GPGSV,2,1,08,32,85,298,30,25,61,046,35,28,54,312,33,29,32,128,,1*6D"
10621,236072836,0,0,GSV,1,0,"$GPGSV,2,2,08,31,29,287,19,12,24,045,29,10,22,205,16,03,06,326,24,1*6A"
10646,236180477,0,0,GSV,1,0,"$GPGSV,1,1,04,32,85,298,16,25,61,046,31,28,54,312,18,03,06,326,13,8*63"
10647,236182298,0,0,GSV,1,0,"$GLGSV,2,1,06,72,71,312,25,74,68,333,33,73,31,037,29,65,19,330,34,1*72"
10648,236183407,0,0,GSV,1,0,"$GLGSV,2,2,06,83,03,072,32,82,02,024,25,1*7B"
10649,236184228,0,0,GSV,1,0,"$GAGSV,1,1,01,02,15,042,35,7*44"
10650,236185041,0,0,GSV,1,0,"$GAGSV,1,1,01,02,15,042,24,1*42"
10651,236185923,0,0,GSV,1,0,"$GBGSV,1,1,02,36,,,30,16,,,27,1*70"
10652,236186440,0,0,GSV,1,0,"$GBGSV,1,1,00,4*73"
10653,236188183,0,0,RMC,1,0,"$GNRMC,111317.000,A,3629.0023,N,13634.4382,E,0.14,182.99,170726,,,A,V*04"
10655,236189350,0,0,VTG,1,0,"$GNVTG,182.99,T,,M,0.14,N,0.26,K,A*29"
10657,236190109,0,0,MSG,1,0,"$PAIRMSG,90,111317.000,1*5D"
10658,236190856,0,0,MSG,1,0,"$PAIRMSG,91,111317.000,1,0*40"
10877,237029515,0,0,GGA,1,0,"$GNGGA,111318.000,3629.0023,N,13634.4382,E,1,15,1.79,47.5,M,34.9,M,,*4B"
10879,237031018,0,0,GLL,1,0,"$GNGLL,3629.0023,N,13634.4382,E,111318.000,A,A*4D"
10880,237032359,0,0,GSA,1,0,"$GNGSA,A,3,32,25,28,12,03,,,,,,,,2.03,1.79,0.95,1*0F"
10882,237033691,0,0,GSA,1,0,"$GNGSA,A,3,72,74,73,65,,,,,,,,,2.03,1.79,0.95,2*01"
10884,237034810,0,0,GSA,1,0,"$GNGSA,A,3,02,,,,,,,,,,,,2.03,1.79,0.95,3*03"
10886,237035961,0,0,GSA,1,0,"$GNGSA,A,3,,,,,,,,,,,,,2.03,1.79,0.95,4*06"
10888,237037768,0,0,GSV,1,0,"$GPGSV,2,1,08,32,85,298,30,25,61,046,35,28,54,312,33,29,32,128,,1*6D"
10889,237039521,0,0,GSV,1,0,"$GPGSV,2,2,08,31,29,287,19,12,24,045,29,10,22,205,16,03,06,326,24,1*6A"
10914,237144558,0,0,GSV,1,0,"$GPGSV,1,1,04,32,85,298,16,25,61,046,31,28,54,312,18,03,06,326,13,8*63"
10915,237146367,0,0,GSV,1,0,"$GLGSV,2,1,06,72,71,312,25,74,68,333,33,73,31,037,29,65,19,330,35,1*73"
10916,237147493,0,0,GSV,1,0,"$GLGSV,2,2,06,83,03,072,33,82,02,024,25,1*7A"
10917,237148358,0,0,GSV,1,0,"$GAGSV,1,1,01,02,15,042,35,7*44"
10918,237149241,0,0,GSV,1,0,"$GAGSV,1,1,01,02,15,042,24,1*42"
10919,237150153,0,0,GSV,1,0,"$GBGSV,1,1,02,36,,,30,16,,,27,1*70"
10920,237150739,0,0,GSV,1,0,"$GBGSV,1,1,00,4*73"
10921,237152461,0,0,RMC,1,0,"$GNRMC,111318.000,A,3629.0023,N,13634.4382,E,0.10,182.99,170726,,,A,V*0F"
10923,237153602,0,0,VTG,1,0,"$GNVTG,182.99,T,,M,0.10,N,0.18,K,A*20"
10925,237154430,0,0,MSG,1,0,"$PAIRMSG,90,111318.000,1*52"
10926,237155171,0,0,MSG,1,0,"$PAIRMSG,91,111318.000,1,0*4F"
11145,237985462,0,0,GGA,1,0,"$GNGGA,111319.000,3629.0023,N,13634.4382,E,1,15,1.79,47.5,M,34.9,M,,*4A"
11147,237987020,0,0,GLL,1,0,"$GNGLL,3629.0023,N,13634.4382,E,111319.000,A,A*4C"
11148,237988384,0,0,GSA,1,0,"$GNGSA,A,3,32,25,28,12,03,,,,,,,,2.03,1.79,0.95,1*0F"
11150,237990023,0,0,GSA,1,0,"$GNGSA,A,3,72,74,73,65,,,,,,,,,2.03,1.79,0.95,2*01"
11176,238091218,0,0,GSA,1,0,"$GNGSA,A,3,02,,,,,,,,,,,,2.03,1.79,0.95,3*03"
11178,238092517,0,0,GSA,1,0,"$GNGSA,A,3,,,,,,,,,,,,,2.03,1.79,0.95,4*06"
11180,238094270,0,0,GSV,1,0,"$GPGSV,2,1,08,32,85,298,30,25,61,046,35,28,54,312,33,29,32,128,,1*6D"
11181,238096012,0,0,GSV,1,0,"$GPGSV,2,2,08,31,29,287,19,12,24,045,29,10,22,205,16,03,06,326,24,1*6A"
11182,238097728,0,0,GSV,1,0,"$GPGSV,1,1,04,32,85,298,16,25,61,046,31,28,54,312,18,03,06,326,14,8*64"
